{
"type": "FeatureCollection",
"crs": { "type": "name", "properties": { "name": "urn:ogc:def:crs:OGC:1.3:CRS84" } },
"features": [
{ "type": "Feature", "properties": { "Mode": "DLR", "Station": "Canary Wharf", "Year": 2020, "Day": "FRI", "Tap_count": 4195, "Lines": "Jubilee", "Zone": 2, "Longitude": -0.016134819, "Latitude": 51.50291749 }, "geometry": { "type": "Point", "coordinates": [ -0.016134819, 51.50291749 ] } },
{ "type": "Feature", "properties": { "Mode": "DLR", "Station": "Canary Wharf", "Year": 2020, "Day": "MTT", "Tap_count": 4527, "Lines": "Jubilee", "Zone": 2, "Longitude": -0.016134819, "Latitude": 51.50291749 }, "geometry": { "type": "Point", "coordinates": [ -0.016134819, 51.50291749 ] } },
{ "type": "Feature", "properties": { "Mode": "DLR", "Station": "Canary Wharf", "Year": 2020, "Day": "SAT", "Tap_count": 2361, "Lines": "Jubilee", "Zone": 2, "Longitude": -0.016134819, "Latitude": 51.50291749 }, "geometry": { "type": "Point", "coordinates": [ -0.016134819, 51.50291749 ] } },
{ "type": "Feature", "properties": { "Mode": "DLR", "Station": "Canary Wharf", "Year": 2020, "Day": "SUN", "Tap_count": 1566, "Lines": "Jubilee", "Zone": 2, "Longitude": -0.016134819, "Latitude": 51.50291749 }, "geometry": { "type": "Point", "coordinates": [ -0.016134819, 51.50291749 ] } },
{ "type": "Feature", "properties": { "Mode": "DLR", "Station": "Shadwell", "Year": 2020, "Day": "FRI", "Tap_count": 3805, "Lines": null, "Zone": 2, "Longitude": -0.055365921, "Latitude": 51.51070004 }, "geometry": { "type": "Point", "coordinates": [ -0.055365921, 51.51070004 ] } },
{ "type": "Feature", "properties": { "Mode": "DLR", "Station": "Shadwell", "Year": 2020, "Day": "MTT", "Tap_count": 3900, "Lines": null, "Zone": 2, "Longitude": -0.055365921, "Latitude": 51.51070004 }, "geometry": { "type": "Point", "coordinates": [ -0.055365921, 51.51070004 ] } },
{ "type": "Feature", "properties": { "Mode": "DLR", "Station": "Shadwell", "Year": 2020, "Day": "SAT", "Tap_count": 2655, "Lines": null, "Zone": 2, "Longitude": -0.055365921, "Latitude": 51.51070004 }, "geometry": { "type": "Point", "coordinates": [ -0.055365921, 51.51070004 ] } },
{ "type": "Feature", "properties": { "Mode": "DLR", "Station": "Shadwell", "Year": 2020, "Day": "SUN", "Tap_count": 1882, "Lines": null, "Zone": 2, "Longitude": -0.055365921, "Latitude": 51.51070004 }, "geometry": { "type": "Point", "coordinates": [ -0.055365921, 51.51070004 ] } },
{ "type": "Feature", "properties": { "Mode": "LU", "Station": "Acton Central", "Year": 2020, "Day": "FRI", "Tap_count": 3016, "Lines": null, "Zone": 3, "Longitude": -0.261566477, "Latitude": 51.50821824 }, "geometry": { "type": "Point", "coordinates": [ -0.261566477, 51.50821824 ] } },
{ "type": "Feature", "properties": { "Mode": "LU", "Station": "Acton Central", "Year": 2020, "Day": "MTT", "Tap_count": 2972, "Lines": null, "Zone": 3, "Longitude": -0.261566477, "Latitude": 51.50821824 }, "geometry": { "type": "Point", "coordinates": [ -0.261566477, 51.50821824 ] } },
{ "type": "Feature", "properties": { "Mode": "LU", "Station": "Acton Central", "Year": 2020, "Day": "SAT", "Tap_count": 2246, "Lines": null, "Zone": 3, "Longitude": -0.261566477, "Latitude": 51.50821824 }, "geometry": { "type": "Point", "coordinates": [ -0.261566477, 51.50821824 ] } },
{ "type": "Feature", "properties": { "Mode": "LU", "Station": "Acton Central", "Year": 2020, "Day": "SUN", "Tap_count": 1286, "Lines": null, "Zone": 3, "Longitude": -0.261566477, "Latitude": 51.50821824 }, "geometry": { "type": "Point", "coordinates": [ -0.261566477, 51.50821824 ] } },
{ "type": "Feature", "properties": { "Mode": "LU", "Station": "Acton Town", "Year": 2020, "Day": "FRI", "Tap_count": 8783, "Lines": "District, Piccadilly", "Zone": 3, "Longitude": -0.278432824, "Latitude": 51.50213702 }, "geometry": { "type": "Point", "coordinates": [ -0.278432824, 51.50213702 ] } },
{ "type": "Feature", "properties": { "Mode": "LU", "Station": "Acton Town", "Year": 2020, "Day": "MTT", "Tap_count": 8521, "Lines": "District, Piccadilly", "Zone": 3, "Longitude": -0.278432824, "Latitude": 51.50213702 }, "geometry": { "type": "Point", "coordinates": [ -0.278432824, 51.50213702 ] } },
{ "type": "Feature", "properties": { "Mode": "LU", "Station": "Acton Town", "Year": 2020, "Day": "SAT", "Tap_count": 6197, "Lines": "District, Piccadilly", "Zone": 3, "Longitude": -0.278432824, "Latitude": 51.50213702 }, "geometry": { "type": "Point", "coordinates": [ -0.278432824, 51.50213702 ] } },
{ "type": "Feature", "properties": { "Mode": "LU", "Station": "Acton Town", "Year": 2020, "Day": "SUN", "Tap_count": 4455, "Lines": "District, Piccadilly", "Zone": 3, "Longitude": -0.278432824, "Latitude": 51.50213702 }, "geometry": { "type": "Point", "coordinates": [ -0.278432824, 51.50213702 ] } },
{ "type": "Feature", "properties": { "Mode": "LU", "Station": "Aldgate", "Year": 2020, "Day": "FRI", "Tap_count": 9972, "Lines": "Metropolitan, Circle", "Zone": 1, "Longitude": -0.0742363, "Latitude": 51.51398203 }, "geometry": { "type": "Point", "coordinates": [ -0.0742363, 51.51398203 ] } },
{ "type": "Feature", "properties": { "Mode": "LU", "Station": "Aldgate", "Year": 2020, "Day": "MTT", "Tap_count": 10436, "Lines": "Metropolitan, Circle", "Zone": 1, "Longitude": -0.0742363, "Latitude": 51.51398203 }, "geometry": { "type": "Point", "coordinates": [ -0.0742363, 51.51398203 ] } },
{ "type": "Feature", "properties": { "Mode": "LU", "Station": "Aldgate", "Year": 2020, "Day": "SAT", "Tap_count": 6344, "Lines": "Metropolitan, Circle", "Zone": 1, "Longitude": -0.0742363, "Latitude": 51.51398203 }, "geometry": { "type": "Point", "coordinates": [ -0.0742363, 51.51398203 ] } },
{ "type": "Feature", "properties": { "Mode": "LU", "Station": "Aldgate", "Year": 2020, "Day": "SUN", "Tap_count": 4182, "Lines": "Metropolitan, Circle", "Zone": 1, "Longitude": -0.0742363, "Latitude": 51.51398203 }, "geometry": { "type": "Point", "coordinates": [ -0.0742363, 51.51398203 ] } },
{ "type": "Feature", "properties": { "Mode": "LU", "Station": "Aldgate East", "Year": 2020, "Day": "FRI", "Tap_count": 14127, "Lines": "Hammersmith & City, District", "Zone": 1, "Longitude": -0.069540402, "Latitude": 51.51491653 }, "geometry": { "type": "Point", "coordinates": [ -0.069540402, 51.51491653 ] } },
{ "type": "Feature", "properties": { "Mode": "LU", "Station": "Aldgate East", "Year": 2020, "Day": "MTT", "Tap_count": 13524, "Lines": "Hammersmith & City, District", "Zone": 1, "Longitude": -0.069540402, "Latitude": 51.51491653 }, "geometry": { "type": "Point", "coordinates": [ -0.069540402, 51.51491653 ] } },
{ "type": "Feature", "properties": { "Mode": "LU", "Station": "Aldgate East", "Year": 2020, "Day": "SAT", "Tap_count": 10005, "Lines": "Hammersmith & City, District", "Zone": 1, "Longitude": -0.069540402, "Latitude": 51.51491653 }, "geometry": { "type": "Point", "coordinates": [ -0.069540402, 51.51491653 ] } },
{ "type": "Feature", "properties": { "Mode": "LU", "Station": "Aldgate East", "Year": 2020, "Day": "SUN", "Tap_count": 7532, "Lines": "Hammersmith & City, District", "Zone": 1, "Longitude": -0.069540402, "Latitude": 51.51491653 }, "geometry": { "type": "Point", "coordinates": [ -0.069540402, 51.51491653 ] } },
{ "type": "Feature", "properties": { "Mode": "LU", "Station": "Alperton", "Year": 2020, "Day": "FRI", "Tap_count": 4373, "Lines": "Piccadilly", "Zone": 4, "Longitude": -0.298361133, "Latitude": 51.54022715 }, "geometry": { "type": "Point", "coordinates": [ -0.298361133, 51.54022715 ] } },
{ "type": "Feature", "properties": { "Mode": "LU", "Station": "Alperton", "Year": 2020, "Day": "MTT", "Tap_count": 4324, "Lines": "Piccadilly", "Zone": 4, "Longitude": -0.298361133, "Latitude": 51.54022715 }, "geometry": { "type": "Point", "coordinates": [ -0.298361133, 51.54022715 ] } },
{ "type": "Feature", "properties": { "Mode": "LU", "Station": "Alperton", "Year": 2020, "Day": "SAT", "Tap_count": 2810, "Lines": "Piccadilly", "Zone": 4, "Longitude": -0.298361133, "Latitude": 51.54022715 }, "geometry": { "type": "Point", "coordinates": [ -0.298361133, 51.54022715 ] } },
{ "type": "Feature", "properties": { "Mode": "LU", "Station": "Alperton", "Year": 2020, "Day": "SUN", "Tap_count": 1848, "Lines": "Piccadilly", "Zone": 4, "Longitude": -0.298361133, "Latitude": 51.54022715 }, "geometry": { "type": "Point", "coordinates": [ -0.298361133, 51.54022715 ] } },
{ "type": "Feature", "properties": { "Mode": "LU", "Station": "Amersham", "Year": 2020, "Day": "FRI", "Tap_count": 2585, "Lines": "Metropolitan", "Zone": 9, "Longitude": -0.606146762, "Latitude": 51.67366188 }, "geometry": { "type": "Point", "coordinates": [ -0.606146762, 51.67366188 ] } },
{ "type": "Feature", "properties": { "Mode": "LU", "Station": "Amersham", "Year": 2020, "Day": "MTT", "Tap_count": 2717, "Lines": "Metropolitan", "Zone": 9, "Longitude": -0.606146762, "Latitude": 51.67366188 }, "geometry": { "type": "Point", "coordinates": [ -0.606146762, 51.67366188 ] } },
{ "type": "Feature", "properties": { "Mode": "LU", "Station": "Amersham", "Year": 2020, "Day": "SAT", "Tap_count": 1544, "Lines": "Metropolitan", "Zone": 9, "Longitude": -0.606146762, "Latitude": 51.67366188 }, "geometry": { "type": "Point", "coordinates": [ -0.606146762, 51.67366188 ] } },
{ "type": "Feature", "properties": { "Mode": "LU", "Station": "Amersham", "Year": 2020, "Day": "SUN", "Tap_count": 935, "Lines": "Metropolitan", "Zone": 9, "Longitude": -0.606146762, "Latitude": 51.67366188 }, "geometry": { "type": "Point", "coordinates": [ -0.606146762, 51.67366188 ] } },
{ "type": "Feature", "properties": { "Mode": "LU", "Station": "Anerley", "Year": 2020, "Day": "FRI", "Tap_count": 651, "Lines": null, "Zone": 4, "Longitude": -0.06410424, "Latitude": 51.411617 }, "geometry": { "type": "Point", "coordinates": [ -0.06410424, 51.411617 ] } },
{ "type": "Feature", "properties": { "Mode": "LU", "Station": "Anerley", "Year": 2020, "Day": "MTT", "Tap_count": 629, "Lines": null, "Zone": 4, "Longitude": -0.06410424, "Latitude": 51.411617 }, "geometry": { "type": "Point", "coordinates": [ -0.06410424, 51.411617 ] } },
{ "type": "Feature", "properties": { "Mode": "LU", "Station": "Anerley", "Year": 2020, "Day": "SAT", "Tap_count": 371, "Lines": null, "Zone": 4, "Longitude": -0.06410424, "Latitude": 51.411617 }, "geometry": { "type": "Point", "coordinates": [ -0.06410424, 51.411617 ] } },
{ "type": "Feature", "properties": { "Mode": "LU", "Station": "Anerley", "Year": 2020, "Day": "SUN", "Tap_count": 270, "Lines": null, "Zone": 4, "Longitude": -0.06410424, "Latitude": 51.411617 }, "geometry": { "type": "Point", "coordinates": [ -0.06410424, 51.411617 ] } },
{ "type": "Feature", "properties": { "Mode": "LU", "Station": "Angel", "Year": 2020, "Day": "FRI", "Tap_count": 19471, "Lines": "Northern", "Zone": 1, "Longitude": -0.103116359, "Latitude": 51.5309796 }, "geometry": { "type": "Point", "coordinates": [ -0.103116359, 51.5309796 ] } },
{ "type": "Feature", "properties": { "Mode": "LU", "Station": "Angel", "Year": 2020, "Day": "MTT", "Tap_count": 18152, "Lines": "Northern", "Zone": 1, "Longitude": -0.103116359, "Latitude": 51.5309796 }, "geometry": { "type": "Point", "coordinates": [ -0.103116359, 51.5309796 ] } },
{ "type": "Feature", "properties": { "Mode": "LU", "Station": "Angel", "Year": 2020, "Day": "SAT", "Tap_count": 15023, "Lines": "Northern", "Zone": 1, "Longitude": -0.103116359, "Latitude": 51.5309796 }, "geometry": { "type": "Point", "coordinates": [ -0.103116359, 51.5309796 ] } },
{ "type": "Feature", "properties": { "Mode": "LU", "Station": "Angel", "Year": 2020, "Day": "SUN", "Tap_count": 9439, "Lines": "Northern", "Zone": 1, "Longitude": -0.103116359, "Latitude": 51.5309796 }, "geometry": { "type": "Point", "coordinates": [ -0.103116359, 51.5309796 ] } },
{ "type": "Feature", "properties": { "Mode": "LU", "Station": "Archway", "Year": 2020, "Day": "FRI", "Tap_count": 11788, "Lines": "Northern", "Zone": 2, "Longitude": -0.13344404, "Latitude": 51.56403452 }, "geometry": { "type": "Point", "coordinates": [ -0.13344404, 51.56403452 ] } },
{ "type": "Feature", "properties": { "Mode": "LU", "Station": "Archway", "Year": 2020, "Day": "MTT", "Tap_count": 11459, "Lines": "Northern", "Zone": 2, "Longitude": -0.13344404, "Latitude": 51.56403452 }, "geometry": { "type": "Point", "coordinates": [ -0.13344404, 51.56403452 ] } },
{ "type": "Feature", "properties": { "Mode": "LU", "Station": "Archway", "Year": 2020, "Day": "SAT", "Tap_count": 8379, "Lines": "Northern", "Zone": 2, "Longitude": -0.13344404, "Latitude": 51.56403452 }, "geometry": { "type": "Point", "coordinates": [ -0.13344404, 51.56403452 ] } },
{ "type": "Feature", "properties": { "Mode": "LU", "Station": "Archway", "Year": 2020, "Day": "SUN", "Tap_count": 5882, "Lines": "Northern", "Zone": 2, "Longitude": -0.13344404, "Latitude": 51.56403452 }, "geometry": { "type": "Point", "coordinates": [ -0.13344404, 51.56403452 ] } },
{ "type": "Feature", "properties": { "Mode": "LU", "Station": "Arnos Grove", "Year": 2020, "Day": "FRI", "Tap_count": 6101, "Lines": "Piccadilly", "Zone": 4, "Longitude": -0.131434823, "Latitude": 51.61595478 }, "geometry": { "type": "Point", "coordinates": [ -0.131434823, 51.61595478 ] } },
{ "type": "Feature", "properties": { "Mode": "LU", "Station": "Arnos Grove", "Year": 2020, "Day": "MTT", "Tap_count": 5929, "Lines": "Piccadilly", "Zone": 4, "Longitude": -0.131434823, "Latitude": 51.61595478 }, "geometry": { "type": "Point", "coordinates": [ -0.131434823, 51.61595478 ] } },
{ "type": "Feature", "properties": { "Mode": "LU", "Station": "Arnos Grove", "Year": 2020, "Day": "SAT", "Tap_count": 4784, "Lines": "Piccadilly", "Zone": 4, "Longitude": -0.131434823, "Latitude": 51.61595478 }, "geometry": { "type": "Point", "coordinates": [ -0.131434823, 51.61595478 ] } },
{ "type": "Feature", "properties": { "Mode": "LU", "Station": "Arnos Grove", "Year": 2020, "Day": "SUN", "Tap_count": 3349, "Lines": "Piccadilly", "Zone": 4, "Longitude": -0.131434823, "Latitude": 51.61595478 }, "geometry": { "type": "Point", "coordinates": [ -0.131434823, 51.61595478 ] } },
{ "type": "Feature", "properties": { "Mode": "LU", "Station": "Arsenal", "Year": 2020, "Day": "FRI", "Tap_count": 4337, "Lines": "Piccadilly", "Zone": 2, "Longitude": -0.105674399, "Latitude": 51.55811105 }, "geometry": { "type": "Point", "coordinates": [ -0.105674399, 51.55811105 ] } },
{ "type": "Feature", "properties": { "Mode": "LU", "Station": "Arsenal", "Year": 2020, "Day": "MTT", "Tap_count": 4217, "Lines": "Piccadilly", "Zone": 2, "Longitude": -0.105674399, "Latitude": 51.55811105 }, "geometry": { "type": "Point", "coordinates": [ -0.105674399, 51.55811105 ] } },
{ "type": "Feature", "properties": { "Mode": "LU", "Station": "Arsenal", "Year": 2020, "Day": "SAT", "Tap_count": 5343, "Lines": "Piccadilly", "Zone": 2, "Longitude": -0.105674399, "Latitude": 51.55811105 }, "geometry": { "type": "Point", "coordinates": [ -0.105674399, 51.55811105 ] } },
{ "type": "Feature", "properties": { "Mode": "LU", "Station": "Arsenal", "Year": 2020, "Day": "SUN", "Tap_count": 4147, "Lines": "Piccadilly", "Zone": 2, "Longitude": -0.105674399, "Latitude": 51.55811105 }, "geometry": { "type": "Point", "coordinates": [ -0.105674399, 51.55811105 ] } },
{ "type": "Feature", "properties": { "Mode": "LU", "Station": "Baker Street", "Year": 2020, "Day": "FRI", "Tap_count": 30866, "Lines": "Metropolitan, Bakerloo, Circle, Jubilee, Hammersmith & City", "Zone": 1, "Longitude": -0.155454387, "Latitude": 51.52249387 }, "geometry": { "type": "Point", "coordinates": [ -0.155454387, 51.52249387 ] } },
{ "type": "Feature", "properties": { "Mode": "LU", "Station": "Baker Street", "Year": 2020, "Day": "MTT", "Tap_count": 30386, "Lines": "Metropolitan, Bakerloo, Circle, Jubilee, Hammersmith & City", "Zone": 1, "Longitude": -0.155454387, "Latitude": 51.52249387 }, "geometry": { "type": "Point", "coordinates": [ -0.155454387, 51.52249387 ] } },
{ "type": "Feature", "properties": { "Mode": "LU", "Station": "Baker Street", "Year": 2020, "Day": "SAT", "Tap_count": 20877, "Lines": "Metropolitan, Bakerloo, Circle, Jubilee, Hammersmith & City", "Zone": 1, "Longitude": -0.155454387, "Latitude": 51.52249387 }, "geometry": { "type": "Point", "coordinates": [ -0.155454387, 51.52249387 ] } },
{ "type": "Feature", "properties": { "Mode": "LU", "Station": "Baker Street", "Year": 2020, "Day": "SUN", "Tap_count": 14717, "Lines": "Metropolitan, Bakerloo, Circle, Jubilee, Hammersmith & City", "Zone": 1, "Longitude": -0.155454387, "Latitude": 51.52249387 }, "geometry": { "type": "Point", "coordinates": [ -0.155454387, 51.52249387 ] } },
{ "type": "Feature", "properties": { "Mode": "LU", "Station": "Balham", "Year": 2020, "Day": "FRI", "Tap_count": 16779, "Lines": "Northern", "Zone": 3, "Longitude": -0.151090206, "Latitude": 51.44310998 }, "geometry": { "type": "Point", "coordinates": [ -0.151090206, 51.44310998 ] } },
{ "type": "Feature", "properties": { "Mode": "LU", "Station": "Balham", "Year": 2020, "Day": "MTT", "Tap_count": 15898, "Lines": "Northern", "Zone": 3, "Longitude": -0.151090206, "Latitude": 51.44310998 }, "geometry": { "type": "Point", "coordinates": [ -0.151090206, 51.44310998 ] } },
{ "type": "Feature", "properties": { "Mode": "LU", "Station": "Balham", "Year": 2020, "Day": "SAT", "Tap_count": 13520, "Lines": "Northern", "Zone": 3, "Longitude": -0.151090206, "Latitude": 51.44310998 }, "geometry": { "type": "Point", "coordinates": [ -0.151090206, 51.44310998 ] } },
{ "type": "Feature", "properties": { "Mode": "LU", "Station": "Balham", "Year": 2020, "Day": "SUN", "Tap_count": 8785, "Lines": "Northern", "Zone": 3, "Longitude": -0.151090206, "Latitude": 51.44310998 }, "geometry": { "type": "Point", "coordinates": [ -0.151090206, 51.44310998 ] } },
{ "type": "Feature", "properties": { "Mode": "NR", "Station": "Balham", "Year": 2020, "Day": "FRI", "Tap_count": 9828, "Lines": "Northern", "Zone": 3, "Longitude": -0.151090206, "Latitude": 51.44310998 }, "geometry": { "type": "Point", "coordinates": [ -0.151090206, 51.44310998 ] } },
{ "type": "Feature", "properties": { "Mode": "NR", "Station": "Balham", "Year": 2020, "Day": "MTT", "Tap_count": 9658, "Lines": "Northern", "Zone": 3, "Longitude": -0.151090206, "Latitude": 51.44310998 }, "geometry": { "type": "Point", "coordinates": [ -0.151090206, 51.44310998 ] } },
{ "type": "Feature", "properties": { "Mode": "NR", "Station": "Balham", "Year": 2020, "Day": "SAT", "Tap_count": 7107, "Lines": "Northern", "Zone": 3, "Longitude": -0.151090206, "Latitude": 51.44310998 }, "geometry": { "type": "Point", "coordinates": [ -0.151090206, 51.44310998 ] } },
{ "type": "Feature", "properties": { "Mode": "NR", "Station": "Balham", "Year": 2020, "Day": "SUN", "Tap_count": 4345, "Lines": "Northern", "Zone": 3, "Longitude": -0.151090206, "Latitude": 51.44310998 }, "geometry": { "type": "Point", "coordinates": [ -0.151090206, 51.44310998 ] } },
{ "type": "Feature", "properties": { "Mode": "LU", "Station": "Bank", "Year": 2020, "Day": "FRI", "Tap_count": 39917, "Lines": "Waterloo & City, Northern, Central", "Zone": 1, "Longitude": -0.08729695, "Latitude": 51.51291511 }, "geometry": { "type": "Point", "coordinates": [ -0.08729695, 51.51291511 ] } },
{ "type": "Feature", "properties": { "Mode": "LU", "Station": "Bank", "Year": 2020, "Day": "MTT", "Tap_count": 42838, "Lines": "Waterloo & City, Northern, Central", "Zone": 1, "Longitude": -0.08729695, "Latitude": 51.51291511 }, "geometry": { "type": "Point", "coordinates": [ -0.08729695, 51.51291511 ] } },
{ "type": "Feature", "properties": { "Mode": "LU", "Station": "Bank", "Year": 2020, "Day": "SAT", "Tap_count": 16484, "Lines": "Waterloo & City, Northern, Central", "Zone": 1, "Longitude": -0.08729695, "Latitude": 51.51291511 }, "geometry": { "type": "Point", "coordinates": [ -0.08729695, 51.51291511 ] } },
{ "type": "Feature", "properties": { "Mode": "LU", "Station": "Bank", "Year": 2020, "Day": "SUN", "Tap_count": 9085, "Lines": "Waterloo & City, Northern, Central", "Zone": 1, "Longitude": -0.08729695, "Latitude": 51.51291511 }, "geometry": { "type": "Point", "coordinates": [ -0.08729695, 51.51291511 ] } },
{ "type": "Feature", "properties": { "Mode": "LU", "Station": "Barbican", "Year": 2020, "Day": "FRI", "Tap_count": 13062, "Lines": "Metropolitan, Circle, Hammersmith & City", "Zone": 1, "Longitude": -0.097189673, "Latitude": 51.51969921 }, "geometry": { "type": "Point", "coordinates": [ -0.097189673, 51.51969921 ] } },
{ "type": "Feature", "properties": { "Mode": "LU", "Station": "Barbican", "Year": 2020, "Day": "MTT", "Tap_count": 13817, "Lines": "Metropolitan, Circle, Hammersmith & City", "Zone": 1, "Longitude": -0.097189673, "Latitude": 51.51969921 }, "geometry": { "type": "Point", "coordinates": [ -0.097189673, 51.51969921 ] } },
{ "type": "Feature", "properties": { "Mode": "LU", "Station": "Barbican", "Year": 2020, "Day": "SAT", "Tap_count": 5136, "Lines": "Metropolitan, Circle, Hammersmith & City", "Zone": 1, "Longitude": -0.097189673, "Latitude": 51.51969921 }, "geometry": { "type": "Point", "coordinates": [ -0.097189673, 51.51969921 ] } },
{ "type": "Feature", "properties": { "Mode": "LU", "Station": "Barbican", "Year": 2020, "Day": "SUN", "Tap_count": 3552, "Lines": "Metropolitan, Circle, Hammersmith & City", "Zone": 1, "Longitude": -0.097189673, "Latitude": 51.51969921 }, "geometry": { "type": "Point", "coordinates": [ -0.097189673, 51.51969921 ] } },
{ "type": "Feature", "properties": { "Mode": "LU", "Station": "Barking", "Year": 2020, "Day": "FRI", "Tap_count": 31240, "Lines": "District, Hammersmith & City", "Zone": 4, "Longitude": 0.081813552, "Latitude": 51.53937511 }, "geometry": { "type": "Point", "coordinates": [ 0.081813552, 51.53937511 ] } },
{ "type": "Feature", "properties": { "Mode": "LU", "Station": "Barking", "Year": 2020, "Day": "FRI", "Tap_count": 31240, "Lines": null, "Zone": 4, "Longitude": 0.082703641, "Latitude": 51.53890805 }, "geometry": { "type": "Point", "coordinates": [ 0.082703641, 51.53890805 ] } },
{ "type": "Feature", "properties": { "Mode": "LU", "Station": "Barking", "Year": 2020, "Day": "MTT", "Tap_count": 30819, "Lines": "District, Hammersmith & City", "Zone": 4, "Longitude": 0.081813552, "Latitude": 51.53937511 }, "geometry": { "type": "Point", "coordinates": [ 0.081813552, 51.53937511 ] } },
{ "type": "Feature", "properties": { "Mode": "LU", "Station": "Barking", "Year": 2020, "Day": "MTT", "Tap_count": 30819, "Lines": null, "Zone": 4, "Longitude": 0.082703641, "Latitude": 51.53890805 }, "geometry": { "type": "Point", "coordinates": [ 0.082703641, 51.53890805 ] } },
{ "type": "Feature", "properties": { "Mode": "LU", "Station": "Barking", "Year": 2020, "Day": "SAT", "Tap_count": 20866, "Lines": "District, Hammersmith & City", "Zone": 4, "Longitude": 0.081813552, "Latitude": 51.53937511 }, "geometry": { "type": "Point", "coordinates": [ 0.081813552, 51.53937511 ] } },
{ "type": "Feature", "properties": { "Mode": "LU", "Station": "Barking", "Year": 2020, "Day": "SAT", "Tap_count": 20866, "Lines": null, "Zone": 4, "Longitude": 0.082703641, "Latitude": 51.53890805 }, "geometry": { "type": "Point", "coordinates": [ 0.082703641, 51.53890805 ] } },
{ "type": "Feature", "properties": { "Mode": "LU", "Station": "Barking", "Year": 2020, "Day": "SUN", "Tap_count": 13741, "Lines": "District, Hammersmith & City", "Zone": 4, "Longitude": 0.081813552, "Latitude": 51.53937511 }, "geometry": { "type": "Point", "coordinates": [ 0.081813552, 51.53937511 ] } },
{ "type": "Feature", "properties": { "Mode": "LU", "Station": "Barking", "Year": 2020, "Day": "SUN", "Tap_count": 13741, "Lines": null, "Zone": 4, "Longitude": 0.082703641, "Latitude": 51.53890805 }, "geometry": { "type": "Point", "coordinates": [ 0.082703641, 51.53890805 ] } },
{ "type": "Feature", "properties": { "Mode": "LU", "Station": "Barkingside", "Year": 2020, "Day": "FRI", "Tap_count": 2224, "Lines": "Central", "Zone": 4, "Longitude": 0.090259547, "Latitude": 51.58519895 }, "geometry": { "type": "Point", "coordinates": [ 0.090259547, 51.58519895 ] } },
{ "type": "Feature", "properties": { "Mode": "LU", "Station": "Barkingside", "Year": 2020, "Day": "MTT", "Tap_count": 2303, "Lines": "Central", "Zone": 4, "Longitude": 0.090259547, "Latitude": 51.58519895 }, "geometry": { "type": "Point", "coordinates": [ 0.090259547, 51.58519895 ] } },
{ "type": "Feature", "properties": { "Mode": "LU", "Station": "Barkingside", "Year": 2020, "Day": "SAT", "Tap_count": 1284, "Lines": "Central", "Zone": 4, "Longitude": 0.090259547, "Latitude": 51.58519895 }, "geometry": { "type": "Point", "coordinates": [ 0.090259547, 51.58519895 ] } },
{ "type": "Feature", "properties": { "Mode": "LU", "Station": "Barkingside", "Year": 2020, "Day": "SUN", "Tap_count": 815, "Lines": "Central", "Zone": 4, "Longitude": 0.090259547, "Latitude": 51.58519895 }, "geometry": { "type": "Point", "coordinates": [ 0.090259547, 51.58519895 ] } },
{ "type": "Feature", "properties": { "Mode": "LU", "Station": "Barons Court", "Year": 2020, "Day": "FRI", "Tap_count": 8090, "Lines": "District, Piccadilly", "Zone": 2, "Longitude": -0.213088174, "Latitude": 51.48978737 }, "geometry": { "type": "Point", "coordinates": [ -0.213088174, 51.48978737 ] } },
{ "type": "Feature", "properties": { "Mode": "LU", "Station": "Barons Court", "Year": 2020, "Day": "MTT", "Tap_count": 8131, "Lines": "District, Piccadilly", "Zone": 2, "Longitude": -0.213088174, "Latitude": 51.48978737 }, "geometry": { "type": "Point", "coordinates": [ -0.213088174, 51.48978737 ] } },
{ "type": "Feature", "properties": { "Mode": "LU", "Station": "Barons Court", "Year": 2020, "Day": "SAT", "Tap_count": 5350, "Lines": "District, Piccadilly", "Zone": 2, "Longitude": -0.213088174, "Latitude": 51.48978737 }, "geometry": { "type": "Point", "coordinates": [ -0.213088174, 51.48978737 ] } },
{ "type": "Feature", "properties": { "Mode": "LU", "Station": "Barons Court", "Year": 2020, "Day": "SUN", "Tap_count": 3772, "Lines": "District, Piccadilly", "Zone": 2, "Longitude": -0.213088174, "Latitude": 51.48978737 }, "geometry": { "type": "Point", "coordinates": [ -0.213088174, 51.48978737 ] } },
{ "type": "Feature", "properties": { "Mode": "LU", "Station": "Bayswater", "Year": 2020, "Day": "FRI", "Tap_count": 5141, "Lines": "District, Circle", "Zone": 1, "Longitude": -0.186322701, "Latitude": 51.51181507 }, "geometry": { "type": "Point", "coordinates": [ -0.186322701, 51.51181507 ] } },
{ "type": "Feature", "properties": { "Mode": "LU", "Station": "Bayswater", "Year": 2020, "Day": "MTT", "Tap_count": 4554, "Lines": "District, Circle", "Zone": 1, "Longitude": -0.186322701, "Latitude": 51.51181507 }, "geometry": { "type": "Point", "coordinates": [ -0.186322701, 51.51181507 ] } },
{ "type": "Feature", "properties": { "Mode": "LU", "Station": "Bayswater", "Year": 2020, "Day": "SAT", "Tap_count": 3829, "Lines": "District, Circle", "Zone": 1, "Longitude": -0.186322701, "Latitude": 51.51181507 }, "geometry": { "type": "Point", "coordinates": [ -0.186322701, 51.51181507 ] } },
{ "type": "Feature", "properties": { "Mode": "LU", "Station": "Bayswater", "Year": 2020, "Day": "SUN", "Tap_count": 3119, "Lines": "District, Circle", "Zone": 1, "Longitude": -0.186322701, "Latitude": 51.51181507 }, "geometry": { "type": "Point", "coordinates": [ -0.186322701, 51.51181507 ] } },
{ "type": "Feature", "properties": { "Mode": "LU", "Station": "Becontree", "Year": 2020, "Day": "FRI", "Tap_count": 5905, "Lines": "District", "Zone": 5, "Longitude": 0.128978641, "Latitude": 51.53983401 }, "geometry": { "type": "Point", "coordinates": [ 0.128978641, 51.53983401 ] } },
{ "type": "Feature", "properties": { "Mode": "LU", "Station": "Becontree", "Year": 2020, "Day": "MTT", "Tap_count": 5852, "Lines": "District", "Zone": 5, "Longitude": 0.128978641, "Latitude": 51.53983401 }, "geometry": { "type": "Point", "coordinates": [ 0.128978641, 51.53983401 ] } },
{ "type": "Feature", "properties": { "Mode": "LU", "Station": "Becontree", "Year": 2020, "Day": "SAT", "Tap_count": 3526, "Lines": "District", "Zone": 5, "Longitude": 0.128978641, "Latitude": 51.53983401 }, "geometry": { "type": "Point", "coordinates": [ 0.128978641, 51.53983401 ] } },
{ "type": "Feature", "properties": { "Mode": "LU", "Station": "Becontree", "Year": 2020, "Day": "SUN", "Tap_count": 2306, "Lines": "District", "Zone": 5, "Longitude": 0.128978641, "Latitude": 51.53983401 }, "geometry": { "type": "Point", "coordinates": [ 0.128978641, 51.53983401 ] } },
{ "type": "Feature", "properties": { "Mode": "LU", "Station": "Belsize Park", "Year": 2020, "Day": "FRI", "Tap_count": 7615, "Lines": "Northern", "Zone": 2, "Longitude": -0.163016956, "Latitude": 51.54982085 }, "geometry": { "type": "Point", "coordinates": [ -0.163016956, 51.54982085 ] } },
{ "type": "Feature", "properties": { "Mode": "LU", "Station": "Belsize Park", "Year": 2020, "Day": "MTT", "Tap_count": 7563, "Lines": "Northern", "Zone": 2, "Longitude": -0.163016956, "Latitude": 51.54982085 }, "geometry": { "type": "Point", "coordinates": [ -0.163016956, 51.54982085 ] } },
{ "type": "Feature", "properties": { "Mode": "LU", "Station": "Belsize Park", "Year": 2020, "Day": "SAT", "Tap_count": 5314, "Lines": "Northern", "Zone": 2, "Longitude": -0.163016956, "Latitude": 51.54982085 }, "geometry": { "type": "Point", "coordinates": [ -0.163016956, 51.54982085 ] } },
{ "type": "Feature", "properties": { "Mode": "LU", "Station": "Belsize Park", "Year": 2020, "Day": "SUN", "Tap_count": 3927, "Lines": "Northern", "Zone": 2, "Longitude": -0.163016956, "Latitude": 51.54982085 }, "geometry": { "type": "Point", "coordinates": [ -0.163016956, 51.54982085 ] } },
{ "type": "Feature", "properties": { "Mode": "LU", "Station": "Bermondsey", "Year": 2020, "Day": "FRI", "Tap_count": 14287, "Lines": "Jubilee", "Zone": 2, "Longitude": -0.062745893, "Latitude": 51.49718984 }, "geometry": { "type": "Point", "coordinates": [ -0.062745893, 51.49718984 ] } },
{ "type": "Feature", "properties": { "Mode": "LU", "Station": "Bermondsey", "Year": 2020, "Day": "MTT", "Tap_count": 13564, "Lines": "Jubilee", "Zone": 2, "Longitude": -0.062745893, "Latitude": 51.49718984 }, "geometry": { "type": "Point", "coordinates": [ -0.062745893, 51.49718984 ] } },
{ "type": "Feature", "properties": { "Mode": "LU", "Station": "Bermondsey", "Year": 2020, "Day": "SAT", "Tap_count": 14312, "Lines": "Jubilee", "Zone": 2, "Longitude": -0.062745893, "Latitude": 51.49718984 }, "geometry": { "type": "Point", "coordinates": [ -0.062745893, 51.49718984 ] } },
{ "type": "Feature", "properties": { "Mode": "LU", "Station": "Bermondsey", "Year": 2020, "Day": "SUN", "Tap_count": 9962, "Lines": "Jubilee", "Zone": 2, "Longitude": -0.062745893, "Latitude": 51.49718984 }, "geometry": { "type": "Point", "coordinates": [ -0.062745893, 51.49718984 ] } },
{ "type": "Feature", "properties": { "Mode": "LU", "Station": "Bethnal Green", "Year": 2020, "Day": "FRI", "Tap_count": 19317, "Lines": "Central", "Zone": 2, "Longitude": -0.053074702, "Latitude": 51.52672839 }, "geometry": { "type": "Point", "coordinates": [ -0.053074702, 51.52672839 ] } },
{ "type": "Feature", "properties": { "Mode": "LU", "Station": "Bethnal Green", "Year": 2020, "Day": "FRI", "Tap_count": 19317, "Lines": null, "Zone": 2, "Longitude": -0.057862441, "Latitude": 51.52350343 }, "geometry": { "type": "Point", "coordinates": [ -0.057862441, 51.52350343 ] } },
{ "type": "Feature", "properties": { "Mode": "LU", "Station": "Bethnal Green", "Year": 2020, "Day": "MTT", "Tap_count": 17885, "Lines": "Central", "Zone": 2, "Longitude": -0.053074702, "Latitude": 51.52672839 }, "geometry": { "type": "Point", "coordinates": [ -0.053074702, 51.52672839 ] } },
{ "type": "Feature", "properties": { "Mode": "LU", "Station": "Bethnal Green", "Year": 2020, "Day": "MTT", "Tap_count": 17885, "Lines": null, "Zone": 2, "Longitude": -0.057862441, "Latitude": 51.52350343 }, "geometry": { "type": "Point", "coordinates": [ -0.057862441, 51.52350343 ] } },
{ "type": "Feature", "properties": { "Mode": "LU", "Station": "Bethnal Green", "Year": 2020, "Day": "SAT", "Tap_count": 17597, "Lines": "Central", "Zone": 2, "Longitude": -0.053074702, "Latitude": 51.52672839 }, "geometry": { "type": "Point", "coordinates": [ -0.053074702, 51.52672839 ] } },
{ "type": "Feature", "properties": { "Mode": "LU", "Station": "Bethnal Green", "Year": 2020, "Day": "SAT", "Tap_count": 17597, "Lines": null, "Zone": 2, "Longitude": -0.057862441, "Latitude": 51.52350343 }, "geometry": { "type": "Point", "coordinates": [ -0.057862441, 51.52350343 ] } },
{ "type": "Feature", "properties": { "Mode": "LU", "Station": "Bethnal Green", "Year": 2020, "Day": "SUN", "Tap_count": 12617, "Lines": "Central", "Zone": 2, "Longitude": -0.053074702, "Latitude": 51.52672839 }, "geometry": { "type": "Point", "coordinates": [ -0.053074702, 51.52672839 ] } },
{ "type": "Feature", "properties": { "Mode": "LU", "Station": "Bethnal Green", "Year": 2020, "Day": "SUN", "Tap_count": 12617, "Lines": null, "Zone": 2, "Longitude": -0.057862441, "Latitude": 51.52350343 }, "geometry": { "type": "Point", "coordinates": [ -0.057862441, 51.52350343 ] } },
{ "type": "Feature", "properties": { "Mode": "NR", "Station": "Bethnal Green", "Year": 2020, "Day": "FRI", "Tap_count": 2158, "Lines": "Central", "Zone": 2, "Longitude": -0.053074702, "Latitude": 51.52672839 }, "geometry": { "type": "Point", "coordinates": [ -0.053074702, 51.52672839 ] } },
{ "type": "Feature", "properties": { "Mode": "NR", "Station": "Bethnal Green", "Year": 2020, "Day": "FRI", "Tap_count": 2158, "Lines": null, "Zone": 2, "Longitude": -0.057862441, "Latitude": 51.52350343 }, "geometry": { "type": "Point", "coordinates": [ -0.057862441, 51.52350343 ] } },
{ "type": "Feature", "properties": { "Mode": "NR", "Station": "Bethnal Green", "Year": 2020, "Day": "MTT", "Tap_count": 2171, "Lines": "Central", "Zone": 2, "Longitude": -0.053074702, "Latitude": 51.52672839 }, "geometry": { "type": "Point", "coordinates": [ -0.053074702, 51.52672839 ] } },
{ "type": "Feature", "properties": { "Mode": "NR", "Station": "Bethnal Green", "Year": 2020, "Day": "MTT", "Tap_count": 2171, "Lines": null, "Zone": 2, "Longitude": -0.057862441, "Latitude": 51.52350343 }, "geometry": { "type": "Point", "coordinates": [ -0.057862441, 51.52350343 ] } },
{ "type": "Feature", "properties": { "Mode": "NR", "Station": "Bethnal Green", "Year": 2020, "Day": "SAT", "Tap_count": 1582, "Lines": "Central", "Zone": 2, "Longitude": -0.053074702, "Latitude": 51.52672839 }, "geometry": { "type": "Point", "coordinates": [ -0.053074702, 51.52672839 ] } },
{ "type": "Feature", "properties": { "Mode": "NR", "Station": "Bethnal Green", "Year": 2020, "Day": "SAT", "Tap_count": 1582, "Lines": null, "Zone": 2, "Longitude": -0.057862441, "Latitude": 51.52350343 }, "geometry": { "type": "Point", "coordinates": [ -0.057862441, 51.52350343 ] } },
{ "type": "Feature", "properties": { "Mode": "NR", "Station": "Bethnal Green", "Year": 2020, "Day": "SUN", "Tap_count": 983, "Lines": "Central", "Zone": 2, "Longitude": -0.053074702, "Latitude": 51.52672839 }, "geometry": { "type": "Point", "coordinates": [ -0.053074702, 51.52672839 ] } },
{ "type": "Feature", "properties": { "Mode": "NR", "Station": "Bethnal Green", "Year": 2020, "Day": "SUN", "Tap_count": 983, "Lines": null, "Zone": 2, "Longitude": -0.057862441, "Latitude": 51.52350343 }, "geometry": { "type": "Point", "coordinates": [ -0.057862441, 51.52350343 ] } },
{ "type": "Feature", "properties": { "Mode": "LU", "Station": "Blackfriars", "Year": 2020, "Day": "FRI", "Tap_count": 11358, "Lines": "District, Circle", "Zone": 1, "Longitude": -0.102020251, "Latitude": 51.51111447 }, "geometry": { "type": "Point", "coordinates": [ -0.102020251, 51.51111447 ] } },
{ "type": "Feature", "properties": { "Mode": "LU", "Station": "Blackfriars", "Year": 2020, "Day": "MTT", "Tap_count": 12008, "Lines": "District, Circle", "Zone": 1, "Longitude": -0.102020251, "Latitude": 51.51111447 }, "geometry": { "type": "Point", "coordinates": [ -0.102020251, 51.51111447 ] } },
{ "type": "Feature", "properties": { "Mode": "LU", "Station": "Blackfriars", "Year": 2020, "Day": "SAT", "Tap_count": 4093, "Lines": "District, Circle", "Zone": 1, "Longitude": -0.102020251, "Latitude": 51.51111447 }, "geometry": { "type": "Point", "coordinates": [ -0.102020251, 51.51111447 ] } },
{ "type": "Feature", "properties": { "Mode": "LU", "Station": "Blackfriars", "Year": 2020, "Day": "SUN", "Tap_count": 2916, "Lines": "District, Circle", "Zone": 1, "Longitude": -0.102020251, "Latitude": 51.51111447 }, "geometry": { "type": "Point", "coordinates": [ -0.102020251, 51.51111447 ] } },
{ "type": "Feature", "properties": { "Mode": "NR", "Station": "Blackfriars", "Year": 2020, "Day": "FRI", "Tap_count": 9695, "Lines": "District, Circle", "Zone": 1, "Longitude": -0.102020251, "Latitude": 51.51111447 }, "geometry": { "type": "Point", "coordinates": [ -0.102020251, 51.51111447 ] } },
{ "type": "Feature", "properties": { "Mode": "NR", "Station": "Blackfriars", "Year": 2020, "Day": "MTT", "Tap_count": 10401, "Lines": "District, Circle", "Zone": 1, "Longitude": -0.102020251, "Latitude": 51.51111447 }, "geometry": { "type": "Point", "coordinates": [ -0.102020251, 51.51111447 ] } },
{ "type": "Feature", "properties": { "Mode": "NR", "Station": "Blackfriars", "Year": 2020, "Day": "SAT", "Tap_count": 4513, "Lines": "District, Circle", "Zone": 1, "Longitude": -0.102020251, "Latitude": 51.51111447 }, "geometry": { "type": "Point", "coordinates": [ -0.102020251, 51.51111447 ] } },
{ "type": "Feature", "properties": { "Mode": "NR", "Station": "Blackfriars", "Year": 2020, "Day": "SUN", "Tap_count": 2991, "Lines": "District, Circle", "Zone": 1, "Longitude": -0.102020251, "Latitude": 51.51111447 }, "geometry": { "type": "Point", "coordinates": [ -0.102020251, 51.51111447 ] } },
{ "type": "Feature", "properties": { "Mode": "LU", "Station": "Blackhorse Road", "Year": 2020, "Day": "FRI", "Tap_count": 16550, "Lines": "Victoria", "Zone": 3, "Longitude": -0.040174342, "Latitude": 51.58633801 }, "geometry": { "type": "Point", "coordinates": [ -0.040174342, 51.58633801 ] } },
{ "type": "Feature", "properties": { "Mode": "LU", "Station": "Blackhorse Road", "Year": 2020, "Day": "FRI", "Tap_count": 16550, "Lines": null, "Zone": 3, "Longitude": -0.039657577, "Latitude": 51.58647957 }, "geometry": { "type": "Point", "coordinates": [ -0.039657577, 51.58647957 ] } },
{ "type": "Feature", "properties": { "Mode": "LU", "Station": "Blackhorse Road", "Year": 2020, "Day": "MTT", "Tap_count": 16064, "Lines": "Victoria", "Zone": 3, "Longitude": -0.040174342, "Latitude": 51.58633801 }, "geometry": { "type": "Point", "coordinates": [ -0.040174342, 51.58633801 ] } },
{ "type": "Feature", "properties": { "Mode": "LU", "Station": "Blackhorse Road", "Year": 2020, "Day": "MTT", "Tap_count": 16064, "Lines": null, "Zone": 3, "Longitude": -0.039657577, "Latitude": 51.58647957 }, "geometry": { "type": "Point", "coordinates": [ -0.039657577, 51.58647957 ] } },
{ "type": "Feature", "properties": { "Mode": "LU", "Station": "Blackhorse Road", "Year": 2020, "Day": "SAT", "Tap_count": 11652, "Lines": "Victoria", "Zone": 3, "Longitude": -0.040174342, "Latitude": 51.58633801 }, "geometry": { "type": "Point", "coordinates": [ -0.040174342, 51.58633801 ] } },
{ "type": "Feature", "properties": { "Mode": "LU", "Station": "Blackhorse Road", "Year": 2020, "Day": "SAT", "Tap_count": 11652, "Lines": null, "Zone": 3, "Longitude": -0.039657577, "Latitude": 51.58647957 }, "geometry": { "type": "Point", "coordinates": [ -0.039657577, 51.58647957 ] } },
{ "type": "Feature", "properties": { "Mode": "LU", "Station": "Blackhorse Road", "Year": 2020, "Day": "SUN", "Tap_count": 8403, "Lines": "Victoria", "Zone": 3, "Longitude": -0.040174342, "Latitude": 51.58633801 }, "geometry": { "type": "Point", "coordinates": [ -0.040174342, 51.58633801 ] } },
{ "type": "Feature", "properties": { "Mode": "LU", "Station": "Blackhorse Road", "Year": 2020, "Day": "SUN", "Tap_count": 8403, "Lines": null, "Zone": 3, "Longitude": -0.039657577, "Latitude": 51.58647957 }, "geometry": { "type": "Point", "coordinates": [ -0.039657577, 51.58647957 ] } },
{ "type": "Feature", "properties": { "Mode": "LU", "Station": "Bond Street", "Year": 2020, "Day": "FRI", "Tap_count": 41366, "Lines": "Central, Jubilee", "Zone": 1, "Longitude": -0.148076884, "Latitude": 51.51387033 }, "geometry": { "type": "Point", "coordinates": [ -0.148076884, 51.51387033 ] } },
{ "type": "Feature", "properties": { "Mode": "LU", "Station": "Bond Street", "Year": 2020, "Day": "MTT", "Tap_count": 39865, "Lines": "Central, Jubilee", "Zone": 1, "Longitude": -0.148076884, "Latitude": 51.51387033 }, "geometry": { "type": "Point", "coordinates": [ -0.148076884, 51.51387033 ] } },
{ "type": "Feature", "properties": { "Mode": "LU", "Station": "Bond Street", "Year": 2020, "Day": "SAT", "Tap_count": 31246, "Lines": "Central, Jubilee", "Zone": 1, "Longitude": -0.148076884, "Latitude": 51.51387033 }, "geometry": { "type": "Point", "coordinates": [ -0.148076884, 51.51387033 ] } },
{ "type": "Feature", "properties": { "Mode": "LU", "Station": "Bond Street", "Year": 2020, "Day": "SUN", "Tap_count": 18350, "Lines": "Central, Jubilee", "Zone": 1, "Longitude": -0.148076884, "Latitude": 51.51387033 }, "geometry": { "type": "Point", "coordinates": [ -0.148076884, 51.51387033 ] } },
{ "type": "Feature", "properties": { "Mode": "LU", "Station": "Borough", "Year": 2020, "Day": "FRI", "Tap_count": 9268, "Lines": "Northern", "Zone": 1, "Longitude": -0.091702818, "Latitude": 51.50067969 }, "geometry": { "type": "Point", "coordinates": [ -0.091702818, 51.50067969 ] } },
{ "type": "Feature", "properties": { "Mode": "LU", "Station": "Borough", "Year": 2020, "Day": "MTT", "Tap_count": 9036, "Lines": "Northern", "Zone": 1, "Longitude": -0.091702818, "Latitude": 51.50067969 }, "geometry": { "type": "Point", "coordinates": [ -0.091702818, 51.50067969 ] } },
{ "type": "Feature", "properties": { "Mode": "LU", "Station": "Borough", "Year": 2020, "Day": "SAT", "Tap_count": 5858, "Lines": "Northern", "Zone": 1, "Longitude": -0.091702818, "Latitude": 51.50067969 }, "geometry": { "type": "Point", "coordinates": [ -0.091702818, 51.50067969 ] } },
{ "type": "Feature", "properties": { "Mode": "LU", "Station": "Borough", "Year": 2020, "Day": "SUN", "Tap_count": 3482, "Lines": "Northern", "Zone": 1, "Longitude": -0.091702818, "Latitude": 51.50067969 }, "geometry": { "type": "Point", "coordinates": [ -0.091702818, 51.50067969 ] } },
{ "type": "Feature", "properties": { "Mode": "LU", "Station": "Boston Manor", "Year": 2020, "Day": "FRI", "Tap_count": 2670, "Lines": "Piccadilly", "Zone": 4, "Longitude": -0.32401176, "Latitude": 51.494711 }, "geometry": { "type": "Point", "coordinates": [ -0.32401176, 51.494711 ] } },
{ "type": "Feature", "properties": { "Mode": "LU", "Station": "Boston Manor", "Year": 2020, "Day": "MTT", "Tap_count": 2713, "Lines": "Piccadilly", "Zone": 4, "Longitude": -0.32401176, "Latitude": 51.494711 }, "geometry": { "type": "Point", "coordinates": [ -0.32401176, 51.494711 ] } },
{ "type": "Feature", "properties": { "Mode": "LU", "Station": "Boston Manor", "Year": 2020, "Day": "SAT", "Tap_count": 1633, "Lines": "Piccadilly", "Zone": 4, "Longitude": -0.32401176, "Latitude": 51.494711 }, "geometry": { "type": "Point", "coordinates": [ -0.32401176, 51.494711 ] } },
{ "type": "Feature", "properties": { "Mode": "LU", "Station": "Boston Manor", "Year": 2020, "Day": "SUN", "Tap_count": 1232, "Lines": "Piccadilly", "Zone": 4, "Longitude": -0.32401176, "Latitude": 51.494711 }, "geometry": { "type": "Point", "coordinates": [ -0.32401176, 51.494711 ] } },
{ "type": "Feature", "properties": { "Mode": "LU", "Station": "Bounds Green", "Year": 2020, "Day": "FRI", "Tap_count": 8902, "Lines": "Piccadilly", "Zone": 3, "Longitude": -0.122731021, "Latitude": 51.60656487 }, "geometry": { "type": "Point", "coordinates": [ -0.122731021, 51.60656487 ] } },
{ "type": "Feature", "properties": { "Mode": "LU", "Station": "Bounds Green", "Year": 2020, "Day": "MTT", "Tap_count": 8798, "Lines": "Piccadilly", "Zone": 3, "Longitude": -0.122731021, "Latitude": 51.60656487 }, "geometry": { "type": "Point", "coordinates": [ -0.122731021, 51.60656487 ] } },
{ "type": "Feature", "properties": { "Mode": "LU", "Station": "Bounds Green", "Year": 2020, "Day": "SAT", "Tap_count": 6939, "Lines": "Piccadilly", "Zone": 3, "Longitude": -0.122731021, "Latitude": 51.60656487 }, "geometry": { "type": "Point", "coordinates": [ -0.122731021, 51.60656487 ] } },
{ "type": "Feature", "properties": { "Mode": "LU", "Station": "Bounds Green", "Year": 2020, "Day": "SUN", "Tap_count": 5044, "Lines": "Piccadilly", "Zone": 3, "Longitude": -0.122731021, "Latitude": 51.60656487 }, "geometry": { "type": "Point", "coordinates": [ -0.122731021, 51.60656487 ] } },
{ "type": "Feature", "properties": { "Mode": "LU", "Station": "Bow Road", "Year": 2020, "Day": "FRI", "Tap_count": 8052, "Lines": "District, Hammersmith & City", "Zone": 2, "Longitude": -0.02358427, "Latitude": 51.52639287 }, "geometry": { "type": "Point", "coordinates": [ -0.02358427, 51.52639287 ] } },
{ "type": "Feature", "properties": { "Mode": "LU", "Station": "Bow Road", "Year": 2020, "Day": "MTT", "Tap_count": 7785, "Lines": "District, Hammersmith & City", "Zone": 2, "Longitude": -0.02358427, "Latitude": 51.52639287 }, "geometry": { "type": "Point", "coordinates": [ -0.02358427, 51.52639287 ] } },
{ "type": "Feature", "properties": { "Mode": "LU", "Station": "Bow Road", "Year": 2020, "Day": "SAT", "Tap_count": 4250, "Lines": "District, Hammersmith & City", "Zone": 2, "Longitude": -0.02358427, "Latitude": 51.52639287 }, "geometry": { "type": "Point", "coordinates": [ -0.02358427, 51.52639287 ] } },
{ "type": "Feature", "properties": { "Mode": "LU", "Station": "Bow Road", "Year": 2020, "Day": "SUN", "Tap_count": 3377, "Lines": "District, Hammersmith & City", "Zone": 2, "Longitude": -0.02358427, "Latitude": 51.52639287 }, "geometry": { "type": "Point", "coordinates": [ -0.02358427, 51.52639287 ] } },
{ "type": "Feature", "properties": { "Mode": "LU", "Station": "Brent Cross", "Year": 2020, "Day": "FRI", "Tap_count": 3123, "Lines": "Northern", "Zone": 3, "Longitude": -0.212185251, "Latitude": 51.57616797 }, "geometry": { "type": "Point", "coordinates": [ -0.212185251, 51.57616797 ] } },
{ "type": "Feature", "properties": { "Mode": "LU", "Station": "Brent Cross", "Year": 2020, "Day": "MTT", "Tap_count": 3272, "Lines": "Northern", "Zone": 3, "Longitude": -0.212185251, "Latitude": 51.57616797 }, "geometry": { "type": "Point", "coordinates": [ -0.212185251, 51.57616797 ] } },
{ "type": "Feature", "properties": { "Mode": "LU", "Station": "Brent Cross", "Year": 2020, "Day": "SAT", "Tap_count": 2075, "Lines": "Northern", "Zone": 3, "Longitude": -0.212185251, "Latitude": 51.57616797 }, "geometry": { "type": "Point", "coordinates": [ -0.212185251, 51.57616797 ] } },
{ "type": "Feature", "properties": { "Mode": "LU", "Station": "Brent Cross", "Year": 2020, "Day": "SUN", "Tap_count": 1751, "Lines": "Northern", "Zone": 3, "Longitude": -0.212185251, "Latitude": 51.57616797 }, "geometry": { "type": "Point", "coordinates": [ -0.212185251, 51.57616797 ] } },
{ "type": "Feature", "properties": { "Mode": "LU", "Station": "Brentwood", "Year": 2020, "Day": "FRI", "Tap_count": 3378, "Lines": null, "Zone": 0, "Longitude": 0.301589064, "Latitude": 51.61307149 }, "geometry": { "type": "Point", "coordinates": [ 0.301589064, 51.61307149 ] } },
{ "type": "Feature", "properties": { "Mode": "LU", "Station": "Brentwood", "Year": 2020, "Day": "MTT", "Tap_count": 3424, "Lines": null, "Zone": 0, "Longitude": 0.301589064, "Latitude": 51.61307149 }, "geometry": { "type": "Point", "coordinates": [ 0.301589064, 51.61307149 ] } },
{ "type": "Feature", "properties": { "Mode": "LU", "Station": "Brentwood", "Year": 2020, "Day": "SAT", "Tap_count": 1593, "Lines": null, "Zone": 0, "Longitude": 0.301589064, "Latitude": 51.61307149 }, "geometry": { "type": "Point", "coordinates": [ 0.301589064, 51.61307149 ] } },
{ "type": "Feature", "properties": { "Mode": "LU", "Station": "Brentwood", "Year": 2020, "Day": "SUN", "Tap_count": 801, "Lines": null, "Zone": 0, "Longitude": 0.301589064, "Latitude": 51.61307149 }, "geometry": { "type": "Point", "coordinates": [ 0.301589064, 51.61307149 ] } },
{ "type": "Feature", "properties": { "Mode": "LU", "Station": "Brixton", "Year": 2020, "Day": "FRI", "Tap_count": 39003, "Lines": "Victoria", "Zone": 2, "Longitude": -0.113288835, "Latitude": 51.46215131 }, "geometry": { "type": "Point", "coordinates": [ -0.113288835, 51.46215131 ] } },
{ "type": "Feature", "properties": { "Mode": "LU", "Station": "Brixton", "Year": 2020, "Day": "MTT", "Tap_count": 35525, "Lines": "Victoria", "Zone": 2, "Longitude": -0.113288835, "Latitude": 51.46215131 }, "geometry": { "type": "Point", "coordinates": [ -0.113288835, 51.46215131 ] } },
{ "type": "Feature", "properties": { "Mode": "LU", "Station": "Brixton", "Year": 2020, "Day": "SAT", "Tap_count": 34105, "Lines": "Victoria", "Zone": 2, "Longitude": -0.113288835, "Latitude": 51.46215131 }, "geometry": { "type": "Point", "coordinates": [ -0.113288835, 51.46215131 ] } },
{ "type": "Feature", "properties": { "Mode": "LU", "Station": "Brixton", "Year": 2020, "Day": "SUN", "Tap_count": 22730, "Lines": "Victoria", "Zone": 2, "Longitude": -0.113288835, "Latitude": 51.46215131 }, "geometry": { "type": "Point", "coordinates": [ -0.113288835, 51.46215131 ] } },
{ "type": "Feature", "properties": { "Mode": "NR", "Station": "Brixton", "Year": 2020, "Day": "FRI", "Tap_count": 658, "Lines": "Victoria", "Zone": 2, "Longitude": -0.113288835, "Latitude": 51.46215131 }, "geometry": { "type": "Point", "coordinates": [ -0.113288835, 51.46215131 ] } },
{ "type": "Feature", "properties": { "Mode": "NR", "Station": "Brixton", "Year": 2020, "Day": "MTT", "Tap_count": 624, "Lines": "Victoria", "Zone": 2, "Longitude": -0.113288835, "Latitude": 51.46215131 }, "geometry": { "type": "Point", "coordinates": [ -0.113288835, 51.46215131 ] } },
{ "type": "Feature", "properties": { "Mode": "NR", "Station": "Brixton", "Year": 2020, "Day": "SAT", "Tap_count": 445, "Lines": "Victoria", "Zone": 2, "Longitude": -0.113288835, "Latitude": 51.46215131 }, "geometry": { "type": "Point", "coordinates": [ -0.113288835, 51.46215131 ] } },
{ "type": "Feature", "properties": { "Mode": "NR", "Station": "Brixton", "Year": 2020, "Day": "SUN", "Tap_count": 194, "Lines": "Victoria", "Zone": 2, "Longitude": -0.113288835, "Latitude": 51.46215131 }, "geometry": { "type": "Point", "coordinates": [ -0.113288835, 51.46215131 ] } },
{ "type": "Feature", "properties": { "Mode": "LU", "Station": "Brockley", "Year": 2020, "Day": "FRI", "Tap_count": 5508, "Lines": null, "Zone": 2, "Longitude": -0.035763775, "Latitude": 51.46411871 }, "geometry": { "type": "Point", "coordinates": [ -0.035763775, 51.46411871 ] } },
{ "type": "Feature", "properties": { "Mode": "LU", "Station": "Brockley", "Year": 2020, "Day": "MTT", "Tap_count": 5256, "Lines": null, "Zone": 2, "Longitude": -0.035763775, "Latitude": 51.46411871 }, "geometry": { "type": "Point", "coordinates": [ -0.035763775, 51.46411871 ] } },
{ "type": "Feature", "properties": { "Mode": "LU", "Station": "Brockley", "Year": 2020, "Day": "SAT", "Tap_count": 3412, "Lines": null, "Zone": 2, "Longitude": -0.035763775, "Latitude": 51.46411871 }, "geometry": { "type": "Point", "coordinates": [ -0.035763775, 51.46411871 ] } },
{ "type": "Feature", "properties": { "Mode": "LU", "Station": "Brockley", "Year": 2020, "Day": "SUN", "Tap_count": 2662, "Lines": null, "Zone": 2, "Longitude": -0.035763775, "Latitude": 51.46411871 }, "geometry": { "type": "Point", "coordinates": [ -0.035763775, 51.46411871 ] } },
{ "type": "Feature", "properties": { "Mode": "LU", "Station": "Brondesbury", "Year": 2020, "Day": "FRI", "Tap_count": 4759, "Lines": null, "Zone": 2, "Longitude": -0.200631035, "Latitude": 51.5448108 }, "geometry": { "type": "Point", "coordinates": [ -0.200631035, 51.5448108 ] } },
{ "type": "Feature", "properties": { "Mode": "LU", "Station": "Brondesbury", "Year": 2020, "Day": "MTT", "Tap_count": 4628, "Lines": null, "Zone": 2, "Longitude": -0.200631035, "Latitude": 51.5448108 }, "geometry": { "type": "Point", "coordinates": [ -0.200631035, 51.5448108 ] } },
{ "type": "Feature", "properties": { "Mode": "LU", "Station": "Brondesbury", "Year": 2020, "Day": "SAT", "Tap_count": 3662, "Lines": null, "Zone": 2, "Longitude": -0.200631035, "Latitude": 51.5448108 }, "geometry": { "type": "Point", "coordinates": [ -0.200631035, 51.5448108 ] } },
{ "type": "Feature", "properties": { "Mode": "LU", "Station": "Brondesbury", "Year": 2020, "Day": "SUN", "Tap_count": 2171, "Lines": null, "Zone": 2, "Longitude": -0.200631035, "Latitude": 51.5448108 }, "geometry": { "type": "Point", "coordinates": [ -0.200631035, 51.5448108 ] } },
{ "type": "Feature", "properties": { "Mode": "LU", "Station": "Brondesbury Park", "Year": 2020, "Day": "FRI", "Tap_count": 898, "Lines": null, "Zone": 2, "Longitude": -0.208495753, "Latitude": 51.54030862 }, "geometry": { "type": "Point", "coordinates": [ -0.208495753, 51.54030862 ] } },
{ "type": "Feature", "properties": { "Mode": "LU", "Station": "Brondesbury Park", "Year": 2020, "Day": "MTT", "Tap_count": 895, "Lines": null, "Zone": 2, "Longitude": -0.208495753, "Latitude": 51.54030862 }, "geometry": { "type": "Point", "coordinates": [ -0.208495753, 51.54030862 ] } },
{ "type": "Feature", "properties": { "Mode": "LU", "Station": "Brondesbury Park", "Year": 2020, "Day": "SAT", "Tap_count": 522, "Lines": null, "Zone": 2, "Longitude": -0.208495753, "Latitude": 51.54030862 }, "geometry": { "type": "Point", "coordinates": [ -0.208495753, 51.54030862 ] } },
{ "type": "Feature", "properties": { "Mode": "LU", "Station": "Brondesbury Park", "Year": 2020, "Day": "SUN", "Tap_count": 311, "Lines": null, "Zone": 2, "Longitude": -0.208495753, "Latitude": 51.54030862 }, "geometry": { "type": "Point", "coordinates": [ -0.208495753, 51.54030862 ] } },
{ "type": "Feature", "properties": { "Mode": "LU", "Station": "Bruce Grove", "Year": 2020, "Day": "FRI", "Tap_count": 1018, "Lines": null, "Zone": 3, "Longitude": -0.068182034, "Latitude": 51.59336509 }, "geometry": { "type": "Point", "coordinates": [ -0.068182034, 51.59336509 ] } },
{ "type": "Feature", "properties": { "Mode": "LU", "Station": "Bruce Grove", "Year": 2020, "Day": "MTT", "Tap_count": 1005, "Lines": null, "Zone": 3, "Longitude": -0.068182034, "Latitude": 51.59336509 }, "geometry": { "type": "Point", "coordinates": [ -0.068182034, 51.59336509 ] } },
{ "type": "Feature", "properties": { "Mode": "LU", "Station": "Bruce Grove", "Year": 2020, "Day": "SAT", "Tap_count": 643, "Lines": null, "Zone": 3, "Longitude": -0.068182034, "Latitude": 51.59336509 }, "geometry": { "type": "Point", "coordinates": [ -0.068182034, 51.59336509 ] } },
{ "type": "Feature", "properties": { "Mode": "LU", "Station": "Bruce Grove", "Year": 2020, "Day": "SUN", "Tap_count": 411, "Lines": null, "Zone": 3, "Longitude": -0.068182034, "Latitude": 51.59336509 }, "geometry": { "type": "Point", "coordinates": [ -0.068182034, 51.59336509 ] } },
{ "type": "Feature", "properties": { "Mode": "LU", "Station": "Buckhurst Hill", "Year": 2020, "Day": "FRI", "Tap_count": 2351, "Lines": "Central", "Zone": 5, "Longitude": 0.048455336, "Latitude": 51.62548342 }, "geometry": { "type": "Point", "coordinates": [ 0.048455336, 51.62548342 ] } },
{ "type": "Feature", "properties": { "Mode": "LU", "Station": "Buckhurst Hill", "Year": 2020, "Day": "MTT", "Tap_count": 2315, "Lines": "Central", "Zone": 5, "Longitude": 0.048455336, "Latitude": 51.62548342 }, "geometry": { "type": "Point", "coordinates": [ 0.048455336, 51.62548342 ] } },
{ "type": "Feature", "properties": { "Mode": "LU", "Station": "Buckhurst Hill", "Year": 2020, "Day": "SAT", "Tap_count": 1610, "Lines": "Central", "Zone": 5, "Longitude": 0.048455336, "Latitude": 51.62548342 }, "geometry": { "type": "Point", "coordinates": [ 0.048455336, 51.62548342 ] } },
{ "type": "Feature", "properties": { "Mode": "LU", "Station": "Buckhurst Hill", "Year": 2020, "Day": "SUN", "Tap_count": 926, "Lines": "Central", "Zone": 5, "Longitude": 0.048455336, "Latitude": 51.62548342 }, "geometry": { "type": "Point", "coordinates": [ 0.048455336, 51.62548342 ] } },
{ "type": "Feature", "properties": { "Mode": "LU", "Station": "Burnt Oak", "Year": 2020, "Day": "FRI", "Tap_count": 6482, "Lines": "Northern", "Zone": 4, "Longitude": -0.262398845, "Latitude": 51.60233699 }, "geometry": { "type": "Point", "coordinates": [ -0.262398845, 51.60233699 ] } },
{ "type": "Feature", "properties": { "Mode": "LU", "Station": "Burnt Oak", "Year": 2020, "Day": "MTT", "Tap_count": 6468, "Lines": "Northern", "Zone": 4, "Longitude": -0.262398845, "Latitude": 51.60233699 }, "geometry": { "type": "Point", "coordinates": [ -0.262398845, 51.60233699 ] } },
{ "type": "Feature", "properties": { "Mode": "LU", "Station": "Burnt Oak", "Year": 2020, "Day": "SAT", "Tap_count": 4378, "Lines": "Northern", "Zone": 4, "Longitude": -0.262398845, "Latitude": 51.60233699 }, "geometry": { "type": "Point", "coordinates": [ -0.262398845, 51.60233699 ] } },
{ "type": "Feature", "properties": { "Mode": "LU", "Station": "Burnt Oak", "Year": 2020, "Day": "SUN", "Tap_count": 3126, "Lines": "Northern", "Zone": 4, "Longitude": -0.262398845, "Latitude": 51.60233699 }, "geometry": { "type": "Point", "coordinates": [ -0.262398845, 51.60233699 ] } },
{ "type": "Feature", "properties": { "Mode": "LU", "Station": "Bush Hill Park", "Year": 2020, "Day": "FRI", "Tap_count": 756, "Lines": null, "Zone": 5, "Longitude": -0.067751096, "Latitude": 51.64092455 }, "geometry": { "type": "Point", "coordinates": [ -0.067751096, 51.64092455 ] } },
{ "type": "Feature", "properties": { "Mode": "LU", "Station": "Bush Hill Park", "Year": 2020, "Day": "MTT", "Tap_count": 791, "Lines": null, "Zone": 5, "Longitude": -0.067751096, "Latitude": 51.64092455 }, "geometry": { "type": "Point", "coordinates": [ -0.067751096, 51.64092455 ] } },
{ "type": "Feature", "properties": { "Mode": "LU", "Station": "Bush Hill Park", "Year": 2020, "Day": "SAT", "Tap_count": 434, "Lines": null, "Zone": 5, "Longitude": -0.067751096, "Latitude": 51.64092455 }, "geometry": { "type": "Point", "coordinates": [ -0.067751096, 51.64092455 ] } },
{ "type": "Feature", "properties": { "Mode": "LU", "Station": "Bush Hill Park", "Year": 2020, "Day": "SUN", "Tap_count": 261, "Lines": null, "Zone": 5, "Longitude": -0.067751096, "Latitude": 51.64092455 }, "geometry": { "type": "Point", "coordinates": [ -0.067751096, 51.64092455 ] } },
{ "type": "Feature", "properties": { "Mode": "LU", "Station": "Bushey", "Year": 2020, "Day": "FRI", "Tap_count": 804, "Lines": null, "Zone": 8, "Longitude": -0.38369919, "Latitude": 51.64433251 }, "geometry": { "type": "Point", "coordinates": [ -0.38369919, 51.64433251 ] } },
{ "type": "Feature", "properties": { "Mode": "LU", "Station": "Bushey", "Year": 2020, "Day": "MTT", "Tap_count": 822, "Lines": null, "Zone": 8, "Longitude": -0.38369919, "Latitude": 51.64433251 }, "geometry": { "type": "Point", "coordinates": [ -0.38369919, 51.64433251 ] } },
{ "type": "Feature", "properties": { "Mode": "LU", "Station": "Bushey", "Year": 2020, "Day": "SAT", "Tap_count": 393, "Lines": null, "Zone": 8, "Longitude": -0.38369919, "Latitude": 51.64433251 }, "geometry": { "type": "Point", "coordinates": [ -0.38369919, 51.64433251 ] } },
{ "type": "Feature", "properties": { "Mode": "LU", "Station": "Bushey", "Year": 2020, "Day": "SUN", "Tap_count": 198, "Lines": null, "Zone": 8, "Longitude": -0.38369919, "Latitude": 51.64433251 }, "geometry": { "type": "Point", "coordinates": [ -0.38369919, 51.64433251 ] } },
{ "type": "Feature", "properties": { "Mode": "LU", "Station": "Caledonian Road", "Year": 2020, "Day": "FRI", "Tap_count": 8392, "Lines": "Piccadilly", "Zone": 2, "Longitude": -0.116864262, "Latitude": 51.54801774 }, "geometry": { "type": "Point", "coordinates": [ -0.116864262, 51.54801774 ] } },
{ "type": "Feature", "properties": { "Mode": "LU", "Station": "Caledonian Road", "Year": 2020, "Day": "MTT", "Tap_count": 8081, "Lines": "Piccadilly", "Zone": 2, "Longitude": -0.116864262, "Latitude": 51.54801774 }, "geometry": { "type": "Point", "coordinates": [ -0.116864262, 51.54801774 ] } },
{ "type": "Feature", "properties": { "Mode": "LU", "Station": "Caledonian Road", "Year": 2020, "Day": "SAT", "Tap_count": 6187, "Lines": "Piccadilly", "Zone": 2, "Longitude": -0.116864262, "Latitude": 51.54801774 }, "geometry": { "type": "Point", "coordinates": [ -0.116864262, 51.54801774 ] } },
{ "type": "Feature", "properties": { "Mode": "LU", "Station": "Caledonian Road", "Year": 2020, "Day": "SUN", "Tap_count": 4578, "Lines": "Piccadilly", "Zone": 2, "Longitude": -0.116864262, "Latitude": 51.54801774 }, "geometry": { "type": "Point", "coordinates": [ -0.116864262, 51.54801774 ] } },
{ "type": "Feature", "properties": { "Mode": "LU", "Station": "Caledonian Road & Barnsbury", "Year": 2020, "Day": "FRI", "Tap_count": 1318, "Lines": null, "Zone": 2, "Longitude": -0.114106929, "Latitude": 51.54261531 }, "geometry": { "type": "Point", "coordinates": [ -0.114106929, 51.54261531 ] } },
{ "type": "Feature", "properties": { "Mode": "LU", "Station": "Caledonian Road & Barnsbury", "Year": 2020, "Day": "MTT", "Tap_count": 1303, "Lines": null, "Zone": 2, "Longitude": -0.114106929, "Latitude": 51.54261531 }, "geometry": { "type": "Point", "coordinates": [ -0.114106929, 51.54261531 ] } },
{ "type": "Feature", "properties": { "Mode": "LU", "Station": "Caledonian Road & Barnsbury", "Year": 2020, "Day": "SAT", "Tap_count": 813, "Lines": null, "Zone": 2, "Longitude": -0.114106929, "Latitude": 51.54261531 }, "geometry": { "type": "Point", "coordinates": [ -0.114106929, 51.54261531 ] } },
{ "type": "Feature", "properties": { "Mode": "LU", "Station": "Caledonian Road & Barnsbury", "Year": 2020, "Day": "SUN", "Tap_count": 419, "Lines": null, "Zone": 2, "Longitude": -0.114106929, "Latitude": 51.54261531 }, "geometry": { "type": "Point", "coordinates": [ -0.114106929, 51.54261531 ] } },
{ "type": "Feature", "properties": { "Mode": "LU", "Station": "Cambridge Heath", "Year": 2020, "Day": "FRI", "Tap_count": 587, "Lines": null, "Zone": 2, "Longitude": -0.055565622, "Latitude": 51.53173049 }, "geometry": { "type": "Point", "coordinates": [ -0.055565622, 51.53173049 ] } },
{ "type": "Feature", "properties": { "Mode": "LU", "Station": "Cambridge Heath", "Year": 2020, "Day": "MTT", "Tap_count": 600, "Lines": null, "Zone": 2, "Longitude": -0.055565622, "Latitude": 51.53173049 }, "geometry": { "type": "Point", "coordinates": [ -0.055565622, 51.53173049 ] } },
{ "type": "Feature", "properties": { "Mode": "LU", "Station": "Cambridge Heath", "Year": 2020, "Day": "SAT", "Tap_count": 387, "Lines": null, "Zone": 2, "Longitude": -0.055565622, "Latitude": 51.53173049 }, "geometry": { "type": "Point", "coordinates": [ -0.055565622, 51.53173049 ] } },
{ "type": "Feature", "properties": { "Mode": "LU", "Station": "Cambridge Heath", "Year": 2020, "Day": "SUN", "Tap_count": 253, "Lines": null, "Zone": 2, "Longitude": -0.055565622, "Latitude": 51.53173049 }, "geometry": { "type": "Point", "coordinates": [ -0.055565622, 51.53173049 ] } },
{ "type": "Feature", "properties": { "Mode": "LU", "Station": "Camden Road", "Year": 2020, "Day": "FRI", "Tap_count": 7007, "Lines": null, "Zone": 2, "Longitude": -0.137154414, "Latitude": 51.54122083 }, "geometry": { "type": "Point", "coordinates": [ -0.137154414, 51.54122083 ] } },
{ "type": "Feature", "properties": { "Mode": "LU", "Station": "Camden Road", "Year": 2020, "Day": "MTT", "Tap_count": 6815, "Lines": null, "Zone": 2, "Longitude": -0.137154414, "Latitude": 51.54122083 }, "geometry": { "type": "Point", "coordinates": [ -0.137154414, 51.54122083 ] } },
{ "type": "Feature", "properties": { "Mode": "LU", "Station": "Camden Road", "Year": 2020, "Day": "SAT", "Tap_count": 5047, "Lines": null, "Zone": 2, "Longitude": -0.137154414, "Latitude": 51.54122083 }, "geometry": { "type": "Point", "coordinates": [ -0.137154414, 51.54122083 ] } },
{ "type": "Feature", "properties": { "Mode": "LU", "Station": "Camden Road", "Year": 2020, "Day": "SUN", "Tap_count": 2969, "Lines": null, "Zone": 2, "Longitude": -0.137154414, "Latitude": 51.54122083 }, "geometry": { "type": "Point", "coordinates": [ -0.137154414, 51.54122083 ] } },
{ "type": "Feature", "properties": { "Mode": "LU", "Station": "Camden Town", "Year": 2020, "Day": "FRI", "Tap_count": 25104, "Lines": "Northern", "Zone": 2, "Longitude": -0.141016888, "Latitude": 51.53872412 }, "geometry": { "type": "Point", "coordinates": [ -0.141016888, 51.53872412 ] } },
{ "type": "Feature", "properties": { "Mode": "LU", "Station": "Camden Town", "Year": 2020, "Day": "MTT", "Tap_count": 20798, "Lines": "Northern", "Zone": 2, "Longitude": -0.141016888, "Latitude": 51.53872412 }, "geometry": { "type": "Point", "coordinates": [ -0.141016888, 51.53872412 ] } },
{ "type": "Feature", "properties": { "Mode": "LU", "Station": "Camden Town", "Year": 2020, "Day": "SAT", "Tap_count": 27959, "Lines": "Northern", "Zone": 2, "Longitude": -0.141016888, "Latitude": 51.53872412 }, "geometry": { "type": "Point", "coordinates": [ -0.141016888, 51.53872412 ] } },
{ "type": "Feature", "properties": { "Mode": "LU", "Station": "Camden Town", "Year": 2020, "Day": "SUN", "Tap_count": 18019, "Lines": "Northern", "Zone": 2, "Longitude": -0.141016888, "Latitude": 51.53872412 }, "geometry": { "type": "Point", "coordinates": [ -0.141016888, 51.53872412 ] } },
{ "type": "Feature", "properties": { "Mode": "LU", "Station": "Canada Water", "Year": 2020, "Day": "FRI", "Tap_count": 17673, "Lines": null, "Zone": 2, "Longitude": -0.048105945, "Latitude": 51.49744864 }, "geometry": { "type": "Point", "coordinates": [ -0.048105945, 51.49744864 ] } },
{ "type": "Feature", "properties": { "Mode": "LU", "Station": "Canada Water", "Year": 2020, "Day": "FRI", "Tap_count": 17673, "Lines": "Jubilee", "Zone": 2, "Longitude": -0.048372238, "Latitude": 51.49740822 }, "geometry": { "type": "Point", "coordinates": [ -0.048372238, 51.49740822 ] } },
{ "type": "Feature", "properties": { "Mode": "LU", "Station": "Canada Water", "Year": 2020, "Day": "MTT", "Tap_count": 16030, "Lines": null, "Zone": 2, "Longitude": -0.048105945, "Latitude": 51.49744864 }, "geometry": { "type": "Point", "coordinates": [ -0.048105945, 51.49744864 ] } },
{ "type": "Feature", "properties": { "Mode": "LU", "Station": "Canada Water", "Year": 2020, "Day": "MTT", "Tap_count": 16030, "Lines": "Jubilee", "Zone": 2, "Longitude": -0.048372238, "Latitude": 51.49740822 }, "geometry": { "type": "Point", "coordinates": [ -0.048372238, 51.49740822 ] } },
{ "type": "Feature", "properties": { "Mode": "LU", "Station": "Canada Water", "Year": 2020, "Day": "SAT", "Tap_count": 18318, "Lines": null, "Zone": 2, "Longitude": -0.048105945, "Latitude": 51.49744864 }, "geometry": { "type": "Point", "coordinates": [ -0.048105945, 51.49744864 ] } },
{ "type": "Feature", "properties": { "Mode": "LU", "Station": "Canada Water", "Year": 2020, "Day": "SAT", "Tap_count": 18318, "Lines": "Jubilee", "Zone": 2, "Longitude": -0.048372238, "Latitude": 51.49740822 }, "geometry": { "type": "Point", "coordinates": [ -0.048372238, 51.49740822 ] } },
{ "type": "Feature", "properties": { "Mode": "LU", "Station": "Canada Water", "Year": 2020, "Day": "SUN", "Tap_count": 12559, "Lines": null, "Zone": 2, "Longitude": -0.048105945, "Latitude": 51.49744864 }, "geometry": { "type": "Point", "coordinates": [ -0.048105945, 51.49744864 ] } },
{ "type": "Feature", "properties": { "Mode": "LU", "Station": "Canada Water", "Year": 2020, "Day": "SUN", "Tap_count": 12559, "Lines": "Jubilee", "Zone": 2, "Longitude": -0.048372238, "Latitude": 51.49740822 }, "geometry": { "type": "Point", "coordinates": [ -0.048372238, 51.49740822 ] } },
{ "type": "Feature", "properties": { "Mode": "LU", "Station": "Canning Town", "Year": 2020, "Day": "FRI", "Tap_count": 23649, "Lines": "Jubilee", "Zone": 3, "Longitude": 0.009568884, "Latitude": 51.51360991 }, "geometry": { "type": "Point", "coordinates": [ 0.009568884, 51.51360991 ] } },
{ "type": "Feature", "properties": { "Mode": "LU", "Station": "Canning Town", "Year": 2020, "Day": "MTT", "Tap_count": 22028, "Lines": "Jubilee", "Zone": 3, "Longitude": 0.009568884, "Latitude": 51.51360991 }, "geometry": { "type": "Point", "coordinates": [ 0.009568884, 51.51360991 ] } },
{ "type": "Feature", "properties": { "Mode": "LU", "Station": "Canning Town", "Year": 2020, "Day": "SAT", "Tap_count": 21530, "Lines": "Jubilee", "Zone": 3, "Longitude": 0.009568884, "Latitude": 51.51360991 }, "geometry": { "type": "Point", "coordinates": [ 0.009568884, 51.51360991 ] } },
{ "type": "Feature", "properties": { "Mode": "LU", "Station": "Canning Town", "Year": 2020, "Day": "SUN", "Tap_count": 15359, "Lines": "Jubilee", "Zone": 3, "Longitude": 0.009568884, "Latitude": 51.51360991 }, "geometry": { "type": "Point", "coordinates": [ 0.009568884, 51.51360991 ] } },
{ "type": "Feature", "properties": { "Mode": "LU", "Station": "Cannon Street", "Year": 2020, "Day": "FRI", "Tap_count": 7103, "Lines": "District, Circle", "Zone": 1, "Longitude": -0.088801035, "Latitude": 51.51096254 }, "geometry": { "type": "Point", "coordinates": [ -0.088801035, 51.51096254 ] } },
{ "type": "Feature", "properties": { "Mode": "LU", "Station": "Cannon Street", "Year": 2020, "Day": "MTT", "Tap_count": 7728, "Lines": "District, Circle", "Zone": 1, "Longitude": -0.088801035, "Latitude": 51.51096254 }, "geometry": { "type": "Point", "coordinates": [ -0.088801035, 51.51096254 ] } },
{ "type": "Feature", "properties": { "Mode": "LU", "Station": "Cannon Street", "Year": 2020, "Day": "SAT", "Tap_count": 2020, "Lines": "District, Circle", "Zone": 1, "Longitude": -0.088801035, "Latitude": 51.51096254 }, "geometry": { "type": "Point", "coordinates": [ -0.088801035, 51.51096254 ] } },
{ "type": "Feature", "properties": { "Mode": "LU", "Station": "Cannon Street", "Year": 2020, "Day": "SUN", "Tap_count": 1384, "Lines": "District, Circle", "Zone": 1, "Longitude": -0.088801035, "Latitude": 51.51096254 }, "geometry": { "type": "Point", "coordinates": [ -0.088801035, 51.51096254 ] } },
{ "type": "Feature", "properties": { "Mode": "NR", "Station": "Cannon Street", "Year": 2020, "Day": "FRI", "Tap_count": 11049, "Lines": "District, Circle", "Zone": 1, "Longitude": -0.088801035, "Latitude": 51.51096254 }, "geometry": { "type": "Point", "coordinates": [ -0.088801035, 51.51096254 ] } },
{ "type": "Feature", "properties": { "Mode": "NR", "Station": "Cannon Street", "Year": 2020, "Day": "MTT", "Tap_count": 12583, "Lines": "District, Circle", "Zone": 1, "Longitude": -0.088801035, "Latitude": 51.51096254 }, "geometry": { "type": "Point", "coordinates": [ -0.088801035, 51.51096254 ] } },
{ "type": "Feature", "properties": { "Mode": "NR", "Station": "Cannon Street", "Year": 2020, "Day": "SAT", "Tap_count": 2833, "Lines": "District, Circle", "Zone": 1, "Longitude": -0.088801035, "Latitude": 51.51096254 }, "geometry": { "type": "Point", "coordinates": [ -0.088801035, 51.51096254 ] } },
{ "type": "Feature", "properties": { "Mode": "NR", "Station": "Cannon Street", "Year": 2020, "Day": "SUN", "Tap_count": 1858, "Lines": "District, Circle", "Zone": 1, "Longitude": -0.088801035, "Latitude": 51.51096254 }, "geometry": { "type": "Point", "coordinates": [ -0.088801035, 51.51096254 ] } },
{ "type": "Feature", "properties": { "Mode": "LU", "Station": "Canonbury", "Year": 2020, "Day": "FRI", "Tap_count": 4128, "Lines": null, "Zone": 2, "Longitude": -0.090522836, "Latitude": 51.54817851 }, "geometry": { "type": "Point", "coordinates": [ -0.090522836, 51.54817851 ] } },
{ "type": "Feature", "properties": { "Mode": "LU", "Station": "Canonbury", "Year": 2020, "Day": "MTT", "Tap_count": 3858, "Lines": null, "Zone": 2, "Longitude": -0.090522836, "Latitude": 51.54817851 }, "geometry": { "type": "Point", "coordinates": [ -0.090522836, 51.54817851 ] } },
{ "type": "Feature", "properties": { "Mode": "LU", "Station": "Canonbury", "Year": 2020, "Day": "SAT", "Tap_count": 3148, "Lines": null, "Zone": 2, "Longitude": -0.090522836, "Latitude": 51.54817851 }, "geometry": { "type": "Point", "coordinates": [ -0.090522836, 51.54817851 ] } },
{ "type": "Feature", "properties": { "Mode": "LU", "Station": "Canonbury", "Year": 2020, "Day": "SUN", "Tap_count": 2070, "Lines": null, "Zone": 2, "Longitude": -0.090522836, "Latitude": 51.54817851 }, "geometry": { "type": "Point", "coordinates": [ -0.090522836, 51.54817851 ] } },
{ "type": "Feature", "properties": { "Mode": "LU", "Station": "Canons Park", "Year": 2020, "Day": "FRI", "Tap_count": 3896, "Lines": "Jubilee", "Zone": 5, "Longitude": -0.293102561, "Latitude": 51.60721294 }, "geometry": { "type": "Point", "coordinates": [ -0.293102561, 51.60721294 ] } },
{ "type": "Feature", "properties": { "Mode": "LU", "Station": "Canons Park", "Year": 2020, "Day": "MTT", "Tap_count": 3889, "Lines": "Jubilee", "Zone": 5, "Longitude": -0.293102561, "Latitude": 51.60721294 }, "geometry": { "type": "Point", "coordinates": [ -0.293102561, 51.60721294 ] } },
{ "type": "Feature", "properties": { "Mode": "LU", "Station": "Canons Park", "Year": 2020, "Day": "SAT", "Tap_count": 2376, "Lines": "Jubilee", "Zone": 5, "Longitude": -0.293102561, "Latitude": 51.60721294 }, "geometry": { "type": "Point", "coordinates": [ -0.293102561, 51.60721294 ] } },
{ "type": "Feature", "properties": { "Mode": "LU", "Station": "Canons Park", "Year": 2020, "Day": "SUN", "Tap_count": 1600, "Lines": "Jubilee", "Zone": 5, "Longitude": -0.293102561, "Latitude": 51.60721294 }, "geometry": { "type": "Point", "coordinates": [ -0.293102561, 51.60721294 ] } },
{ "type": "Feature", "properties": { "Mode": "LU", "Station": "Carpenders Park", "Year": 2020, "Day": "FRI", "Tap_count": 1840, "Lines": null, "Zone": 7, "Longitude": -0.384142381, "Latitude": 51.62780024 }, "geometry": { "type": "Point", "coordinates": [ -0.384142381, 51.62780024 ] } },
{ "type": "Feature", "properties": { "Mode": "LU", "Station": "Carpenders Park", "Year": 2020, "Day": "MTT", "Tap_count": 1809, "Lines": null, "Zone": 7, "Longitude": -0.384142381, "Latitude": 51.62780024 }, "geometry": { "type": "Point", "coordinates": [ -0.384142381, 51.62780024 ] } },
{ "type": "Feature", "properties": { "Mode": "LU", "Station": "Carpenders Park", "Year": 2020, "Day": "SAT", "Tap_count": 1202, "Lines": null, "Zone": 7, "Longitude": -0.384142381, "Latitude": 51.62780024 }, "geometry": { "type": "Point", "coordinates": [ -0.384142381, 51.62780024 ] } },
{ "type": "Feature", "properties": { "Mode": "LU", "Station": "Carpenders Park", "Year": 2020, "Day": "SUN", "Tap_count": 664, "Lines": null, "Zone": 7, "Longitude": -0.384142381, "Latitude": 51.62780024 }, "geometry": { "type": "Point", "coordinates": [ -0.384142381, 51.62780024 ] } },
{ "type": "Feature", "properties": { "Mode": "LU", "Station": "Chadwell Heath", "Year": 2020, "Day": "FRI", "Tap_count": 6613, "Lines": null, "Zone": 5, "Longitude": 0.130973337, "Latitude": 51.56749975 }, "geometry": { "type": "Point", "coordinates": [ 0.130973337, 51.56749975 ] } },
{ "type": "Feature", "properties": { "Mode": "LU", "Station": "Chadwell Heath", "Year": 2020, "Day": "MTT", "Tap_count": 6647, "Lines": null, "Zone": 5, "Longitude": 0.130973337, "Latitude": 51.56749975 }, "geometry": { "type": "Point", "coordinates": [ 0.130973337, 51.56749975 ] } },
{ "type": "Feature", "properties": { "Mode": "LU", "Station": "Chadwell Heath", "Year": 2020, "Day": "SAT", "Tap_count": 3716, "Lines": null, "Zone": 5, "Longitude": 0.130973337, "Latitude": 51.56749975 }, "geometry": { "type": "Point", "coordinates": [ 0.130973337, 51.56749975 ] } },
{ "type": "Feature", "properties": { "Mode": "LU", "Station": "Chadwell Heath", "Year": 2020, "Day": "SUN", "Tap_count": 2069, "Lines": null, "Zone": 5, "Longitude": 0.130973337, "Latitude": 51.56749975 }, "geometry": { "type": "Point", "coordinates": [ 0.130973337, 51.56749975 ] } },
{ "type": "Feature", "properties": { "Mode": "LU", "Station": "Chalfont & Latimer", "Year": 2020, "Day": "FRI", "Tap_count": 1311, "Lines": "Metropolitan", "Zone": 8, "Longitude": -0.559159868, "Latitude": 51.66754646 }, "geometry": { "type": "Point", "coordinates": [ -0.559159868, 51.66754646 ] } },
{ "type": "Feature", "properties": { "Mode": "LU", "Station": "Chalfont & Latimer", "Year": 2020, "Day": "MTT", "Tap_count": 1369, "Lines": "Metropolitan", "Zone": 8, "Longitude": -0.559159868, "Latitude": 51.66754646 }, "geometry": { "type": "Point", "coordinates": [ -0.559159868, 51.66754646 ] } },
{ "type": "Feature", "properties": { "Mode": "LU", "Station": "Chalfont & Latimer", "Year": 2020, "Day": "SAT", "Tap_count": 610, "Lines": "Metropolitan", "Zone": 8, "Longitude": -0.559159868, "Latitude": 51.66754646 }, "geometry": { "type": "Point", "coordinates": [ -0.559159868, 51.66754646 ] } },
{ "type": "Feature", "properties": { "Mode": "LU", "Station": "Chalfont & Latimer", "Year": 2020, "Day": "SUN", "Tap_count": 349, "Lines": "Metropolitan", "Zone": 8, "Longitude": -0.559159868, "Latitude": 51.66754646 }, "geometry": { "type": "Point", "coordinates": [ -0.559159868, 51.66754646 ] } },
{ "type": "Feature", "properties": { "Mode": "LU", "Station": "Chalk Farm", "Year": 2020, "Day": "FRI", "Tap_count": 9207, "Lines": "Northern", "Zone": 2, "Longitude": -0.151037017, "Latitude": 51.54335257 }, "geometry": { "type": "Point", "coordinates": [ -0.151037017, 51.54335257 ] } },
{ "type": "Feature", "properties": { "Mode": "LU", "Station": "Chalk Farm", "Year": 2020, "Day": "MTT", "Tap_count": 8158, "Lines": "Northern", "Zone": 2, "Longitude": -0.151037017, "Latitude": 51.54335257 }, "geometry": { "type": "Point", "coordinates": [ -0.151037017, 51.54335257 ] } },
{ "type": "Feature", "properties": { "Mode": "LU", "Station": "Chalk Farm", "Year": 2020, "Day": "SAT", "Tap_count": 9234, "Lines": "Northern", "Zone": 2, "Longitude": -0.151037017, "Latitude": 51.54335257 }, "geometry": { "type": "Point", "coordinates": [ -0.151037017, 51.54335257 ] } },
{ "type": "Feature", "properties": { "Mode": "LU", "Station": "Chalk Farm", "Year": 2020, "Day": "SUN", "Tap_count": 5764, "Lines": "Northern", "Zone": 2, "Longitude": -0.151037017, "Latitude": 51.54335257 }, "geometry": { "type": "Point", "coordinates": [ -0.151037017, 51.54335257 ] } },
{ "type": "Feature", "properties": { "Mode": "LU", "Station": "Chancery Lane", "Year": 2020, "Day": "FRI", "Tap_count": 21020, "Lines": "Central", "Zone": 1, "Longitude": -0.109960547, "Latitude": 51.5177395 }, "geometry": { "type": "Point", "coordinates": [ -0.109960547, 51.517739500000012 ] } },
{ "type": "Feature", "properties": { "Mode": "LU", "Station": "Chancery Lane", "Year": 2020, "Day": "MTT", "Tap_count": 22559, "Lines": "Central", "Zone": 1, "Longitude": -0.109960547, "Latitude": 51.5177395 }, "geometry": { "type": "Point", "coordinates": [ -0.109960547, 51.517739500000012 ] } },
{ "type": "Feature", "properties": { "Mode": "LU", "Station": "Chancery Lane", "Year": 2020, "Day": "SAT", "Tap_count": 9251, "Lines": "Central", "Zone": 1, "Longitude": -0.109960547, "Latitude": 51.5177395 }, "geometry": { "type": "Point", "coordinates": [ -0.109960547, 51.517739500000012 ] } },
{ "type": "Feature", "properties": { "Mode": "LU", "Station": "Chancery Lane", "Year": 2020, "Day": "SUN", "Tap_count": 5355, "Lines": "Central", "Zone": 1, "Longitude": -0.109960547, "Latitude": 51.5177395 }, "geometry": { "type": "Point", "coordinates": [ -0.109960547, 51.517739500000012 ] } },
{ "type": "Feature", "properties": { "Mode": "LU", "Station": "Charing Cross", "Year": 2020, "Day": "FRI", "Tap_count": 27455, "Lines": "Bakerloo, Northern", "Zone": 1, "Longitude": -0.125777173, "Latitude": 51.50686754 }, "geometry": { "type": "Point", "coordinates": [ -0.125777173, 51.50686754 ] } },
{ "type": "Feature", "properties": { "Mode": "LU", "Station": "Charing Cross", "Year": 2020, "Day": "MTT", "Tap_count": 25130, "Lines": "Bakerloo, Northern", "Zone": 1, "Longitude": -0.125777173, "Latitude": 51.50686754 }, "geometry": { "type": "Point", "coordinates": [ -0.125777173, 51.50686754 ] } },
{ "type": "Feature", "properties": { "Mode": "LU", "Station": "Charing Cross", "Year": 2020, "Day": "SAT", "Tap_count": 23544, "Lines": "Bakerloo, Northern", "Zone": 1, "Longitude": -0.125777173, "Latitude": 51.50686754 }, "geometry": { "type": "Point", "coordinates": [ -0.125777173, 51.50686754 ] } },
{ "type": "Feature", "properties": { "Mode": "LU", "Station": "Charing Cross", "Year": 2020, "Day": "SUN", "Tap_count": 11964, "Lines": "Bakerloo, Northern", "Zone": 1, "Longitude": -0.125777173, "Latitude": 51.50686754 }, "geometry": { "type": "Point", "coordinates": [ -0.125777173, 51.50686754 ] } },
{ "type": "Feature", "properties": { "Mode": "NR", "Station": "Charing Cross", "Year": 2020, "Day": "FRI", "Tap_count": 20016, "Lines": "Bakerloo, Northern", "Zone": 1, "Longitude": -0.125777173, "Latitude": 51.50686754 }, "geometry": { "type": "Point", "coordinates": [ -0.125777173, 51.50686754 ] } },
{ "type": "Feature", "properties": { "Mode": "NR", "Station": "Charing Cross", "Year": 2020, "Day": "MTT", "Tap_count": 20321, "Lines": "Bakerloo, Northern", "Zone": 1, "Longitude": -0.125777173, "Latitude": 51.50686754 }, "geometry": { "type": "Point", "coordinates": [ -0.125777173, 51.50686754 ] } },
{ "type": "Feature", "properties": { "Mode": "NR", "Station": "Charing Cross", "Year": 2020, "Day": "SAT", "Tap_count": 13237, "Lines": "Bakerloo, Northern", "Zone": 1, "Longitude": -0.125777173, "Latitude": 51.50686754 }, "geometry": { "type": "Point", "coordinates": [ -0.125777173, 51.50686754 ] } },
{ "type": "Feature", "properties": { "Mode": "NR", "Station": "Charing Cross", "Year": 2020, "Day": "SUN", "Tap_count": 6516, "Lines": "Bakerloo, Northern", "Zone": 1, "Longitude": -0.125777173, "Latitude": 51.50686754 }, "geometry": { "type": "Point", "coordinates": [ -0.125777173, 51.50686754 ] } },
{ "type": "Feature", "properties": { "Mode": "LU", "Station": "Chesham", "Year": 2020, "Day": "FRI", "Tap_count": 1525, "Lines": "Metropolitan", "Zone": 9, "Longitude": -0.609421076, "Latitude": 51.70474175 }, "geometry": { "type": "Point", "coordinates": [ -0.609421076, 51.70474175 ] } },
{ "type": "Feature", "properties": { "Mode": "LU", "Station": "Chesham", "Year": 2020, "Day": "MTT", "Tap_count": 1607, "Lines": "Metropolitan", "Zone": 9, "Longitude": -0.609421076, "Latitude": 51.70474175 }, "geometry": { "type": "Point", "coordinates": [ -0.609421076, 51.70474175 ] } },
{ "type": "Feature", "properties": { "Mode": "LU", "Station": "Chesham", "Year": 2020, "Day": "SAT", "Tap_count": 955, "Lines": "Metropolitan", "Zone": 9, "Longitude": -0.609421076, "Latitude": 51.70474175 }, "geometry": { "type": "Point", "coordinates": [ -0.609421076, 51.70474175 ] } },
{ "type": "Feature", "properties": { "Mode": "LU", "Station": "Chesham", "Year": 2020, "Day": "SUN", "Tap_count": 611, "Lines": "Metropolitan", "Zone": 9, "Longitude": -0.609421076, "Latitude": 51.70474175 }, "geometry": { "type": "Point", "coordinates": [ -0.609421076, 51.70474175 ] } },
{ "type": "Feature", "properties": { "Mode": "LU", "Station": "Cheshunt", "Year": 2020, "Day": "FRI", "Tap_count": 2208, "Lines": null, "Zone": 8, "Longitude": -0.022373213, "Latitude": 51.70246665 }, "geometry": { "type": "Point", "coordinates": [ -0.022373213, 51.70246665 ] } },
{ "type": "Feature", "properties": { "Mode": "LU", "Station": "Cheshunt", "Year": 2020, "Day": "MTT", "Tap_count": 2253, "Lines": null, "Zone": 8, "Longitude": -0.022373213, "Latitude": 51.70246665 }, "geometry": { "type": "Point", "coordinates": [ -0.022373213, 51.70246665 ] } },
{ "type": "Feature", "properties": { "Mode": "LU", "Station": "Cheshunt", "Year": 2020, "Day": "SAT", "Tap_count": 1522, "Lines": null, "Zone": 8, "Longitude": -0.022373213, "Latitude": 51.70246665 }, "geometry": { "type": "Point", "coordinates": [ -0.022373213, 51.70246665 ] } },
{ "type": "Feature", "properties": { "Mode": "LU", "Station": "Cheshunt", "Year": 2020, "Day": "SUN", "Tap_count": 801, "Lines": null, "Zone": 8, "Longitude": -0.022373213, "Latitude": 51.70246665 }, "geometry": { "type": "Point", "coordinates": [ -0.022373213, 51.70246665 ] } },
{ "type": "Feature", "properties": { "Mode": "LU", "Station": "Chigwell", "Year": 2020, "Day": "FRI", "Tap_count": 614, "Lines": "Central", "Zone": 4, "Longitude": 0.077229167, "Latitude": 51.61715195 }, "geometry": { "type": "Point", "coordinates": [ 0.077229167, 51.61715195 ] } },
{ "type": "Feature", "properties": { "Mode": "LU", "Station": "Chigwell", "Year": 2020, "Day": "MTT", "Tap_count": 643, "Lines": "Central", "Zone": 4, "Longitude": 0.077229167, "Latitude": 51.61715195 }, "geometry": { "type": "Point", "coordinates": [ 0.077229167, 51.61715195 ] } },
{ "type": "Feature", "properties": { "Mode": "LU", "Station": "Chigwell", "Year": 2020, "Day": "SAT", "Tap_count": 307, "Lines": "Central", "Zone": 4, "Longitude": 0.077229167, "Latitude": 51.61715195 }, "geometry": { "type": "Point", "coordinates": [ 0.077229167, 51.61715195 ] } },
{ "type": "Feature", "properties": { "Mode": "LU", "Station": "Chigwell", "Year": 2020, "Day": "SUN", "Tap_count": 174, "Lines": "Central", "Zone": 4, "Longitude": 0.077229167, "Latitude": 51.61715195 }, "geometry": { "type": "Point", "coordinates": [ 0.077229167, 51.61715195 ] } },
{ "type": "Feature", "properties": { "Mode": "LU", "Station": "Chingford", "Year": 2020, "Day": "FRI", "Tap_count": 2882, "Lines": null, "Zone": 5, "Longitude": 0.011677573, "Latitude": 51.63278212 }, "geometry": { "type": "Point", "coordinates": [ 0.011677573, 51.63278212 ] } },
{ "type": "Feature", "properties": { "Mode": "LU", "Station": "Chingford", "Year": 2020, "Day": "MTT", "Tap_count": 2843, "Lines": null, "Zone": 5, "Longitude": 0.011677573, "Latitude": 51.63278212 }, "geometry": { "type": "Point", "coordinates": [ 0.011677573, 51.63278212 ] } },
{ "type": "Feature", "properties": { "Mode": "LU", "Station": "Chingford", "Year": 2020, "Day": "SAT", "Tap_count": 1896, "Lines": null, "Zone": 5, "Longitude": 0.011677573, "Latitude": 51.63278212 }, "geometry": { "type": "Point", "coordinates": [ 0.011677573, 51.63278212 ] } },
{ "type": "Feature", "properties": { "Mode": "LU", "Station": "Chingford", "Year": 2020, "Day": "SUN", "Tap_count": 1272, "Lines": null, "Zone": 5, "Longitude": 0.011677573, "Latitude": 51.63278212 }, "geometry": { "type": "Point", "coordinates": [ 0.011677573, 51.63278212 ] } },
{ "type": "Feature", "properties": { "Mode": "LU", "Station": "Chiswick Park", "Year": 2020, "Day": "FRI", "Tap_count": 3125, "Lines": "District", "Zone": 3, "Longitude": -0.266981606, "Latitude": 51.49415785 }, "geometry": { "type": "Point", "coordinates": [ -0.266981606, 51.49415785 ] } },
{ "type": "Feature", "properties": { "Mode": "LU", "Station": "Chiswick Park", "Year": 2020, "Day": "MTT", "Tap_count": 3136, "Lines": "District", "Zone": 3, "Longitude": -0.266981606, "Latitude": 51.49415785 }, "geometry": { "type": "Point", "coordinates": [ -0.266981606, 51.49415785 ] } },
{ "type": "Feature", "properties": { "Mode": "LU", "Station": "Chiswick Park", "Year": 2020, "Day": "SAT", "Tap_count": 1570, "Lines": "District", "Zone": 3, "Longitude": -0.266981606, "Latitude": 51.49415785 }, "geometry": { "type": "Point", "coordinates": [ -0.266981606, 51.49415785 ] } },
{ "type": "Feature", "properties": { "Mode": "LU", "Station": "Chiswick Park", "Year": 2020, "Day": "SUN", "Tap_count": 1112, "Lines": "District", "Zone": 3, "Longitude": -0.266981606, "Latitude": 51.49415785 }, "geometry": { "type": "Point", "coordinates": [ -0.266981606, 51.49415785 ] } },
{ "type": "Feature", "properties": { "Mode": "LU", "Station": "Chorleywood", "Year": 2020, "Day": "FRI", "Tap_count": 755, "Lines": "Metropolitan", "Zone": 7, "Longitude": -0.516985176, "Latitude": 51.65380677 }, "geometry": { "type": "Point", "coordinates": [ -0.516985176, 51.65380677 ] } },
{ "type": "Feature", "properties": { "Mode": "LU", "Station": "Chorleywood", "Year": 2020, "Day": "MTT", "Tap_count": 774, "Lines": "Metropolitan", "Zone": 7, "Longitude": -0.516985176, "Latitude": 51.65380677 }, "geometry": { "type": "Point", "coordinates": [ -0.516985176, 51.65380677 ] } },
{ "type": "Feature", "properties": { "Mode": "LU", "Station": "Chorleywood", "Year": 2020, "Day": "SAT", "Tap_count": 349, "Lines": "Metropolitan", "Zone": 7, "Longitude": -0.516985176, "Latitude": 51.65380677 }, "geometry": { "type": "Point", "coordinates": [ -0.516985176, 51.65380677 ] } },
{ "type": "Feature", "properties": { "Mode": "LU", "Station": "Chorleywood", "Year": 2020, "Day": "SUN", "Tap_count": 221, "Lines": "Metropolitan", "Zone": 7, "Longitude": -0.516985176, "Latitude": 51.65380677 }, "geometry": { "type": "Point", "coordinates": [ -0.516985176, 51.65380677 ] } },
{ "type": "Feature", "properties": { "Mode": "LU", "Station": "Clapham Common", "Year": 2020, "Day": "FRI", "Tap_count": 13561, "Lines": "Northern", "Zone": 2, "Longitude": -0.135588991, "Latitude": 51.46169503 }, "geometry": { "type": "Point", "coordinates": [ -0.135588991, 51.46169503 ] } },
{ "type": "Feature", "properties": { "Mode": "LU", "Station": "Clapham Common", "Year": 2020, "Day": "MTT", "Tap_count": 12028, "Lines": "Northern", "Zone": 2, "Longitude": -0.135588991, "Latitude": 51.46169503 }, "geometry": { "type": "Point", "coordinates": [ -0.135588991, 51.46169503 ] } },
{ "type": "Feature", "properties": { "Mode": "LU", "Station": "Clapham Common", "Year": 2020, "Day": "SAT", "Tap_count": 12894, "Lines": "Northern", "Zone": 2, "Longitude": -0.135588991, "Latitude": 51.46169503 }, "geometry": { "type": "Point", "coordinates": [ -0.135588991, 51.46169503 ] } },
{ "type": "Feature", "properties": { "Mode": "LU", "Station": "Clapham Common", "Year": 2020, "Day": "SUN", "Tap_count": 8136, "Lines": "Northern", "Zone": 2, "Longitude": -0.135588991, "Latitude": 51.46169503 }, "geometry": { "type": "Point", "coordinates": [ -0.135588991, 51.46169503 ] } },
{ "type": "Feature", "properties": { "Mode": "LU", "Station": "Clapham High Street", "Year": 2020, "Day": "FRI", "Tap_count": 1246, "Lines": null, "Zone": 2, "Longitude": -0.131145084, "Latitude": 51.46503062 }, "geometry": { "type": "Point", "coordinates": [ -0.131145084, 51.46503062 ] } },
{ "type": "Feature", "properties": { "Mode": "LU", "Station": "Clapham High Street", "Year": 2020, "Day": "MTT", "Tap_count": 1219, "Lines": null, "Zone": 2, "Longitude": -0.131145084, "Latitude": 51.46503062 }, "geometry": { "type": "Point", "coordinates": [ -0.131145084, 51.46503062 ] } },
{ "type": "Feature", "properties": { "Mode": "LU", "Station": "Clapham High Street", "Year": 2020, "Day": "SAT", "Tap_count": 867, "Lines": null, "Zone": 2, "Longitude": -0.131145084, "Latitude": 51.46503062 }, "geometry": { "type": "Point", "coordinates": [ -0.131145084, 51.46503062 ] } },
{ "type": "Feature", "properties": { "Mode": "LU", "Station": "Clapham High Street", "Year": 2020, "Day": "SUN", "Tap_count": 513, "Lines": null, "Zone": 2, "Longitude": -0.131145084, "Latitude": 51.46503062 }, "geometry": { "type": "Point", "coordinates": [ -0.131145084, 51.46503062 ] } },
{ "type": "Feature", "properties": { "Mode": "LU", "Station": "Clapham Junction", "Year": 2020, "Day": "FRI", "Tap_count": 33173, "Lines": null, "Zone": 2, "Longitude": -0.16856542, "Latitude": 51.4629141 }, "geometry": { "type": "Point", "coordinates": [ -0.16856542, 51.4629141 ] } },
{ "type": "Feature", "properties": { "Mode": "LU", "Station": "Clapham Junction", "Year": 2020, "Day": "MTT", "Tap_count": 31285, "Lines": null, "Zone": 2, "Longitude": -0.16856542, "Latitude": 51.4629141 }, "geometry": { "type": "Point", "coordinates": [ -0.16856542, 51.4629141 ] } },
{ "type": "Feature", "properties": { "Mode": "LU", "Station": "Clapham Junction", "Year": 2020, "Day": "SAT", "Tap_count": 26370, "Lines": null, "Zone": 2, "Longitude": -0.16856542, "Latitude": 51.4629141 }, "geometry": { "type": "Point", "coordinates": [ -0.16856542, 51.4629141 ] } },
{ "type": "Feature", "properties": { "Mode": "LU", "Station": "Clapham Junction", "Year": 2020, "Day": "SUN", "Tap_count": 16047, "Lines": null, "Zone": 2, "Longitude": -0.16856542, "Latitude": 51.4629141 }, "geometry": { "type": "Point", "coordinates": [ -0.16856542, 51.4629141 ] } },
{ "type": "Feature", "properties": { "Mode": "LU", "Station": "Clapham North", "Year": 2020, "Day": "FRI", "Tap_count": 8561, "Lines": "Northern", "Zone": 2, "Longitude": -0.127754372, "Latitude": 51.4652144 }, "geometry": { "type": "Point", "coordinates": [ -0.127754372, 51.4652144 ] } },
{ "type": "Feature", "properties": { "Mode": "LU", "Station": "Clapham North", "Year": 2020, "Day": "MTT", "Tap_count": 7538, "Lines": "Northern", "Zone": 2, "Longitude": -0.127754372, "Latitude": 51.4652144 }, "geometry": { "type": "Point", "coordinates": [ -0.127754372, 51.4652144 ] } },
{ "type": "Feature", "properties": { "Mode": "LU", "Station": "Clapham North", "Year": 2020, "Day": "SAT", "Tap_count": 7671, "Lines": "Northern", "Zone": 2, "Longitude": -0.127754372, "Latitude": 51.4652144 }, "geometry": { "type": "Point", "coordinates": [ -0.127754372, 51.4652144 ] } },
{ "type": "Feature", "properties": { "Mode": "LU", "Station": "Clapham North", "Year": 2020, "Day": "SUN", "Tap_count": 4805, "Lines": "Northern", "Zone": 2, "Longitude": -0.127754372, "Latitude": 51.4652144 }, "geometry": { "type": "Point", "coordinates": [ -0.127754372, 51.4652144 ] } },
{ "type": "Feature", "properties": { "Mode": "LU", "Station": "Clapham South", "Year": 2020, "Day": "FRI", "Tap_count": 12378, "Lines": "Northern", "Zone": 2, "Longitude": -0.145610374, "Latitude": 51.45272059 }, "geometry": { "type": "Point", "coordinates": [ -0.145610374, 51.45272059 ] } },
{ "type": "Feature", "properties": { "Mode": "LU", "Station": "Clapham South", "Year": 2020, "Day": "MTT", "Tap_count": 12292, "Lines": "Northern", "Zone": 2, "Longitude": -0.145610374, "Latitude": 51.45272059 }, "geometry": { "type": "Point", "coordinates": [ -0.145610374, 51.45272059 ] } },
{ "type": "Feature", "properties": { "Mode": "LU", "Station": "Clapham South", "Year": 2020, "Day": "SAT", "Tap_count": 11844, "Lines": "Northern", "Zone": 2, "Longitude": -0.145610374, "Latitude": 51.45272059 }, "geometry": { "type": "Point", "coordinates": [ -0.145610374, 51.45272059 ] } },
{ "type": "Feature", "properties": { "Mode": "LU", "Station": "Clapham South", "Year": 2020, "Day": "SUN", "Tap_count": 7532, "Lines": "Northern", "Zone": 2, "Longitude": -0.145610374, "Latitude": 51.45272059 }, "geometry": { "type": "Point", "coordinates": [ -0.145610374, 51.45272059 ] } },
{ "type": "Feature", "properties": { "Mode": "LU", "Station": "Clapton", "Year": 2020, "Day": "FRI", "Tap_count": 1187, "Lines": null, "Zone": 0, "Longitude": -0.055484597, "Latitude": 51.56103029 }, "geometry": { "type": "Point", "coordinates": [ -0.055484597, 51.56103029 ] } },
{ "type": "Feature", "properties": { "Mode": "LU", "Station": "Clapton", "Year": 2020, "Day": "MTT", "Tap_count": 1167, "Lines": null, "Zone": 0, "Longitude": -0.055484597, "Latitude": 51.56103029 }, "geometry": { "type": "Point", "coordinates": [ -0.055484597, 51.56103029 ] } },
{ "type": "Feature", "properties": { "Mode": "LU", "Station": "Clapton", "Year": 2020, "Day": "SAT", "Tap_count": 732, "Lines": null, "Zone": 0, "Longitude": -0.055484597, "Latitude": 51.56103029 }, "geometry": { "type": "Point", "coordinates": [ -0.055484597, 51.56103029 ] } },
{ "type": "Feature", "properties": { "Mode": "LU", "Station": "Clapton", "Year": 2020, "Day": "SUN", "Tap_count": 472, "Lines": null, "Zone": 0, "Longitude": -0.055484597, "Latitude": 51.56103029 }, "geometry": { "type": "Point", "coordinates": [ -0.055484597, 51.56103029 ] } },
{ "type": "Feature", "properties": { "Mode": "LU", "Station": "Cockfosters", "Year": 2020, "Day": "FRI", "Tap_count": 2411, "Lines": "Piccadilly", "Zone": 5, "Longitude": -0.147553187, "Latitude": 51.65103526 }, "geometry": { "type": "Point", "coordinates": [ -0.147553187, 51.65103526 ] } },
{ "type": "Feature", "properties": { "Mode": "LU", "Station": "Cockfosters", "Year": 2020, "Day": "MTT", "Tap_count": 2313, "Lines": "Piccadilly", "Zone": 5, "Longitude": -0.147553187, "Latitude": 51.65103526 }, "geometry": { "type": "Point", "coordinates": [ -0.147553187, 51.65103526 ] } },
{ "type": "Feature", "properties": { "Mode": "LU", "Station": "Cockfosters", "Year": 2020, "Day": "SAT", "Tap_count": 2410, "Lines": "Piccadilly", "Zone": 5, "Longitude": -0.147553187, "Latitude": 51.65103526 }, "geometry": { "type": "Point", "coordinates": [ -0.147553187, 51.65103526 ] } },
{ "type": "Feature", "properties": { "Mode": "LU", "Station": "Cockfosters", "Year": 2020, "Day": "SUN", "Tap_count": 1770, "Lines": "Piccadilly", "Zone": 5, "Longitude": -0.147553187, "Latitude": 51.65103526 }, "geometry": { "type": "Point", "coordinates": [ -0.147553187, 51.65103526 ] } },
{ "type": "Feature", "properties": { "Mode": "LU", "Station": "Colindale", "Year": 2020, "Day": "FRI", "Tap_count": 11037, "Lines": "Northern", "Zone": 4, "Longitude": -0.248341905, "Latitude": 51.59494713 }, "geometry": { "type": "Point", "coordinates": [ -0.248341905, 51.59494713 ] } },
{ "type": "Feature", "properties": { "Mode": "LU", "Station": "Colindale", "Year": 2020, "Day": "MTT", "Tap_count": 11072, "Lines": "Northern", "Zone": 4, "Longitude": -0.248341905, "Latitude": 51.59494713 }, "geometry": { "type": "Point", "coordinates": [ -0.248341905, 51.59494713 ] } },
{ "type": "Feature", "properties": { "Mode": "LU", "Station": "Colindale", "Year": 2020, "Day": "SAT", "Tap_count": 7389, "Lines": "Northern", "Zone": 4, "Longitude": -0.248341905, "Latitude": 51.59494713 }, "geometry": { "type": "Point", "coordinates": [ -0.248341905, 51.59494713 ] } },
{ "type": "Feature", "properties": { "Mode": "LU", "Station": "Colindale", "Year": 2020, "Day": "SUN", "Tap_count": 5374, "Lines": "Northern", "Zone": 4, "Longitude": -0.248341905, "Latitude": 51.59494713 }, "geometry": { "type": "Point", "coordinates": [ -0.248341905, 51.59494713 ] } },
{ "type": "Feature", "properties": { "Mode": "LU", "Station": "Colliers Wood", "Year": 2020, "Day": "FRI", "Tap_count": 10302, "Lines": "Northern", "Zone": 3, "Longitude": -0.176460893, "Latitude": 51.41763979 }, "geometry": { "type": "Point", "coordinates": [ -0.176460893, 51.41763979 ] } },
{ "type": "Feature", "properties": { "Mode": "LU", "Station": "Colliers Wood", "Year": 2020, "Day": "MTT", "Tap_count": 9868, "Lines": "Northern", "Zone": 3, "Longitude": -0.176460893, "Latitude": 51.41763979 }, "geometry": { "type": "Point", "coordinates": [ -0.176460893, 51.41763979 ] } },
{ "type": "Feature", "properties": { "Mode": "LU", "Station": "Colliers Wood", "Year": 2020, "Day": "SAT", "Tap_count": 8198, "Lines": "Northern", "Zone": 3, "Longitude": -0.176460893, "Latitude": 51.41763979 }, "geometry": { "type": "Point", "coordinates": [ -0.176460893, 51.41763979 ] } },
{ "type": "Feature", "properties": { "Mode": "LU", "Station": "Colliers Wood", "Year": 2020, "Day": "SUN", "Tap_count": 5651, "Lines": "Northern", "Zone": 3, "Longitude": -0.176460893, "Latitude": 51.41763979 }, "geometry": { "type": "Point", "coordinates": [ -0.176460893, 51.41763979 ] } },
{ "type": "Feature", "properties": { "Mode": "LU", "Station": "Covent Garden", "Year": 2020, "Day": "FRI", "Tap_count": 23513, "Lines": "Piccadilly", "Zone": 1, "Longitude": -0.122759938, "Latitude": 51.51263471 }, "geometry": { "type": "Point", "coordinates": [ -0.122759938, 51.51263471 ] } },
{ "type": "Feature", "properties": { "Mode": "LU", "Station": "Covent Garden", "Year": 2020, "Day": "MTT", "Tap_count": 20096, "Lines": "Piccadilly", "Zone": 1, "Longitude": -0.122759938, "Latitude": 51.51263471 },